stop_id,stop_name,stop_desc,stop_lat,stop_lon,stop_url
BS000081,การไฟฟ้านครหลวงยานนาวา,,13.69383920846873,100.4934448278546,
BS000080,รพ.เจริญกรุง,,13.6959868,100.4959428,
BS000079,ตลาดบางคอแหลม,,13.698221844679,100.49829493765,
BS000078,โรงเรียนเสริมปัญญา,,13.69879225,100.4988666,
BS000077,วัดลาดบัวขาว,,13.699975717616,100.500309029036,
BS000076,สน.วัดพระยาไกร,,13.7018544468428,100.502309383295,
BS000075,เจริญกรุง 93,,13.7037314940274,100.504389616541,
BS000074,วัดราชสิงขร,,13.7050158023973,100.505807645322,
BS000073,บริษัทเอเชียติ๊ก,,13.7070082824224,100.507987401585,
BS000072,โรงแรมแม่น้ำ,,13.707836359638,100.508876184692,
BS000071,บ้านใหม่,,13.7090279410756,100.510227519187,
BS000070,ตรอกบาหยัน,,13.7098024179355,100.511074643215,
BS000069,โรงเรียนศิลปวัฒนา,,13.71155206,100.51208232,
BS000068,สะพานปลา,,13.7124468097,100.512492199904,
BS000067,วัดสุทธิ,,13.713607491868,100.513028072934,
BS000066,โรงเรียนวิทยาเขตพระนครใต้,,13.7160377539888,100.514062641024,
BS000065,วัดยานนาวา,,13.7178252868183,100.514846353031,
BS000064,ห้างโรบินสันบางรัก,,13.7193422005145,100.515528473425,
BS000063,ตลาดบางรัก,,13.72006805,100.51588415,
BS000062,โรงแรมโอเรียนเต็ล,,13.7238216177272,100.516461774473,
BS000061,โอเรียลเต็ล,,13.7251211773356,100.516322659562,
BS000060,มเหศักดิ์,,13.7268125771716,100.521678997972,
BS000059,องค์การโทรศัพท์,,13.7274852542277,100.523725859892,
BS000058,สน.บางรัก,,13.7300788438473,100.523462571558,
BS000057,ซิงเกอร์,,13.7313737032409,100.522170088762,
BS000056,วัดแก้วแจ่มฟ้า,,13.7309620112828,100.51971177511,
BS000055,ร.ร.มหาพฤฒาราม,,13.730408089684,100.516644958773,
BS000054,เฉลิมบุรี,,13.7408120636549,100.511917099156,
BS000053,คลองถม,,13.7428518977977,100.509271246806,
BS000052,คลองถม,,13.7444841453575,100.507151963441,
BS000051,สามยอด,,13.7470194007849,100.502804366937,
BS000050,สินดำรงค์,,13.74711287258005,100.5017098312359,
BS000049,เฉลิมกรุง,,13.7472262425473,100.499242182677,
BS000048,จราจรกลาง,,13.7472657640661,100.498089081111,
BS000047,บ้านหม้อ,,13.7473341191308,100.497086132032,
BS000046,วังสรานรมย์,,13.7473581081374,100.495661903253,
BS000045,กระทรวงกลาโหม,,13.7506676260272,100.493889137249,
BS000044,มหาวิทยาลัยศิลป์,,13.7524,100.490351638109,
BS000043,ท่าช้างวังหลวง,,13.751935562151,100.489321502814,
BS000042,ท่ารถสาย 25,,13.7511091315469,100.489444022325,
BS000041,ท่าราชวรดิษฐ์,,13.7495925734458,100.489637712135,
BS000040,ท่าเตียน,,13.7477875548518,100.490073723436,
BS000039,ท่าเตียน,,13.7469393860262,100.492034656439,
BS000038,กรมรักษาดินแดง,,13.7472922819053,100.494875792904,
BS000037,กรมรักษาดินแดง2,,13.7472643,100.49581544,
BS000036,บ้านหม้อ,,13.7472166465108,100.496805151043,
BS000035,จราจรกลาง,,13.7471408818145,100.498107612603,
BS000034,เฉลิมกรุง,,13.7470861755051,100.499391377132,
BS000033,ห้างเมอร์รีคิงเจริญกรุง,,13.7454698621278,100.502666494595,
BS000032,วัดตึก,,13.7433553345727,100.505893996731,
BS000031,ตลาดเก่าเยาวราช,,13.7411364772544,100.508196024808,
BS000030,เยาวราช,,13.7397883260081,100.510749414937,
BS000029,เยาวราช,,13.7389403148229,100.511987916328,
BS000028,เทียนฟ้า,,13.7378936878538,100.512802863773,
BS000027,ทรงวาด,,13.7356574599364,100.513660554899,
BS000026,ตลาดน้อย,,13.7330450529936,100.514480969915,
BS000025,ท่าสี่พระยา,,13.728751241439,100.515761561787,
BS000024,สำนักงานไปรษณีย์กลาง,,13.7275886763624,100.515878758811,
BS000023,โรงเรียนอัสสัมชัญ,,13.7256069215267,100.516140703777,
BS000022,โรงแรมโอเรียนเต็ล,,13.7238408872674,100.5163909548876,
BS000021,ตลาดบางรัก,,13.7205988,100.51597946,
BS000020,ห้างโรบินสันบางรัก,,13.7195877417287,100.515474569109,
BS000019,วัดยานนาวา,,13.7180185409337,100.514840183063,
BS000018,โรงเรียนสตรีศรีสุริโยทัย,,13.7157498065156,100.513848869272,
BS000017,วัดสุทธิ,,13.713955378589,100.513080119691,
BS000016,สะพานปลา,,13.7123661515077,100.512330111906,
BS000015,ตรงข้ามโรงเรียนศิลปวัฒนา,,13.71171252003552,100.5120582855738,
BS000014,สำนักงานไปรษณีย์วัดพระยาไกร,,13.7099405688222,100.511049336354,
BS000013,บ้านใหม่,,13.7091130469481,100.510062981327,
BS000012,โรงแรมแม่น้ำ,,13.7077874829591,100.508652512005,
BS000011,บริษัทเอเชียติ๊ก,,13.7071009401015,100.507935998274,
BS000010,พนาสิริ,,13.70594183,100.50672298,
BS000009,วัดราชสิงขร,,13.7050154215361,100.505583036949,
BS000008,โรงเรียนจินดาอักษร,,13.70352475,100.50400618,
BS000007,โรงเรียนศาสนศึกษา,,13.70258551,100.50304596,
BS000006,วัดพระยาไกร,,13.7019737769935,100.502279314418,
BS000005,วัดลาดบัวขาว,,13.7001623637153,100.500279921978,
BS000004,ตรงข้ามโรงเรียนเสริมปัญญา,,13.69877355006213,100.4987580838524,
BS000003,ตลาดบางคอแหลม,,13.6982494522136,100.498066559,
BS000002,รพ.เจริญกรุง,,13.6960633,100.4957721,
BS000001,การไฟฟ้านครหลวงยานนาวา,,13.69394284415876,100.4933792476431,
BS000082,ท่ารถพุทธมณฑลสาย 2,,13.73076531288109,100.3998635807198,
BS000196,เพชรเกษม 53,,13.70975372,100.39769521,
BS000195,เพชรเกษม ซอย 51,,13.7101070048161,100.400799924252,
BS000194,ต่างระดับบางแค,,13.7104008568506,100.403845897594,
BS000193,ห้างเดอะมอลล์บางแค,,13.7108665303037,100.410033599441,
BS000192,ซอยเพชรเกษม 45/1,,13.7108824,100.41160462,
BS000191,ธนาคารไทยพาณิชย์บางแค,,13.7111692032544,100.413564212846,
BS000190,สถานีดับเพลิงบางแค,,13.71136626,100.41686231,
BS000189,ห้างโลตัสบางแค,,13.7116666416391,100.419997489607,
BS000188,วัดนิมมารนรดี,,13.7119358737097,100.423407330828,
BS000187,ตลาดบางแค,,13.7121106428567,100.425347278732,
BS000186,บ้านพักคนชราบางแค,,13.7122837363969,100.427423621949,
BS000185,ซอยเพชรเกษม 39,,13.71240770807705,100.429795991597,
BS000184,หน้าปั๊มน้ำมัน,,13.71255797238479,100.4312694559363,
BS000183,ห้างฟิวเจอร์ปาร์คบางแค,,13.7126558167192,100.434331524223,
BS000182,สภากาชาดที่ 11 วิเศษนิยม,,13.71296142405201,100.4361722075654,
BS000181,สำนักงานเขต ภาษีเจริญ,,13.7132969862325,100.439337386682,
BS000180,โรงเรียนญาภารักษ์การบริบาล,,13.71435991,100.44208492,
BS000179,ตรงข้ามซอยเพชรเกษม 48,,13.71499970257407,100.4442505779438,
BS000178,ม. สยาม,,13.7153544307444,100.445778587629,
BS000177,ซอยเพชรเกษม 19/1,,13.71602073657264,100.4473926259584,
BS000176,โรงเรียนชาญกิจวิทยา,,13.717026857836,100.450846547718,
BS000175,มหาวิทยาลัยสยาม,,13.7183257352414,100.454082987398,
BS000174,วัดประดู่บางจาก,,13.7194352742434,100.456134867884,
BS000173,หมู่บ้านไผ่ทองนิเวศน์,,13.72118855,100.45915001,
BS000172,ภัตตาคารเสริมมิตร,,13.7227459656409,100.461899785123,
BS000171,โรงพยาบาลพญาไท 3,,13.7237052814056,100.463697441729,
BS000170,ซอยเพชรเกษม 19/1,,13.72450077,100.46512925,
BS000169,วัดนวลนรดิศ,,13.72502750162749,100.4661870371959,
BS000168,โรงเรียนวิมลบริหารธุรกิจ,,13.7267809337865,100.4693763223,
BS000167,วัดประดู่ในทรงธรรม,,13.7276472683171,100.47103163275,
BS000166,สำนักงานเขตบางกอกใหญ่,,13.7283953362782,100.472417487618,
BS000165,แยกท่าพระ,,13.7290995041072,100.473731743647,
BS000164,สำนักงานเขตบางกอกใหญ่,,13.7272597921059,100.475031909205,
BS000163,ตลาดพลู,,13.7214552336807,100.476887088328,
BS000162,ตลาดพลู,,13.7205550113513,100.477051815145,
BS000161,ธนบุรีพลาซ่า,,13.7182485105432,100.477511389694,
BS000160,เดอะมอลล์ท่าพระ,,13.7136940913715,100.478455820911,
BS000159,ปั้มน้ำมันคิวเอด,,13.7115329297977,100.478917305553,
BS000158,รัชดาซอย 4,,13.7091682369956,100.479931717024,
BS000157,มไหสวรรค์,,13.7056423776104,100.483724322002,
BS000156,แยกแซ่ซิ้ม,,13.7044434610402,100.485451527599,
BS000155,โกบ๊อ,,13.7032061355441,100.484974977166,
BS000154,โรงเรียนแสงทองโทรทัศน์,,13.7016686782683,100.484493632263,
BS000153,ตลาดเก่าบุคคโล,,13.6999805945703,100.483913052464,
BS000152,ห้างบิ๊กซีดาวคะนอง,,13.6992340630944,100.483589196632,
BS000151,ชุมสายโทรศัพท์ดาวคะนอง,,13.6962264228661,100.482594588976,
BS000150,ซอยปลั่งอนุสรณ์,,13.6907388633621,100.481153563551,
BS000149,สุขสวัสดิ์ 8,,13.68905063,100.48228794,
BS000148,โรงเรียนสุวรรณวิทยา,,13.687735195295,100.484256605871,
BS000147,ตลาดบางประแก้ว,,13.6864339741774,100.486006865088,
BS000146,วัดโพธ์แก้วพระราม 2,,13.684526961587,100.486410194696,
BS000145,เขตจอมทอง,,13.683147619097,100.481277018436,
BS000144,ท่าสาย 101,,13.682359323621,100.478158628868,
BS000143,โรงพยาบาลบางปะกอก 9,,13.6814715422896,100.474579200237,
BS000142,วัดพุทธบูชา,,13.680746985552,100.47173401599,
BS000141,ซอยจันทร์พริ้ง,,13.6798315807553,100.468415467946,
BS000140,วัดสีสุก,,13.6787400383666,100.465804485735,
BS000139,ธนาคารอาคารสงเคราะห์,,13.6767430420304,100.462410568798,
BS000138,ธนาคารอาคารสงเคราะห์,,13.6762142094696,100.462759135683,
BS000137,การประปาวัดยายร่ม,,13.6782403824004,100.4662157813,
BS000136,ซอยจันทร์พริ้ง,,13.6791683293043,100.468488515814,
BS000135,วัดพุทธบูชา,,13.6801067434453,100.471888606581,
BS000134,ซอยพระรามที่ 2 ซอย 21,,13.68056215459898,100.4740075882844,
BS000133,ตลาดโพธิ์ทอง,,13.6816305573577,100.478263333814,
BS000132,เขตจอมทอง,,13.6826270458473,100.481814579234,
BS000131,เกียร์เซอร์วิส,,13.68345719314159,100.4849703973528,
BS000130,วัดโพธิ์ทอง,,13.6839985147635,100.486739189349,
BS000129,ตลาดบางประแก้ว,,13.68664312591609,100.4862606326761,
BS000128,ตลาดวัดนาค,,13.6878665604743,100.48449286461,
BS000127,โรงเรียนอนุบาลรังสิมา,,13.68916995,100.48258658,
BS000126,ซอยปลั่งอนุสรณ์,,13.6907724603194,100.481433804621,
BS000125,ตลาดดาวคะนอง,,13.6960113972456,100.482801421851,
BS000124,ห้างบิ๊กซีดาวคะนอง,,13.69905031802628,100.4837885676718,
BS000123,องค์การโทรศัพท์ดาวคะนอง,,13.69988986993591,100.4841581571986,
BS000122,โรงเรียนแสงทองโทรทัศน์,,13.7016164977664,100.484741358247,
BS000121,โกบ๊อ,,13.7030441545357,100.485219507789,
BS000120,แยกแซ่ซิ้ม,,13.7041897101976,100.485644365066,
BS000119,วัดสุทธาวาส,,13.7090053094901,100.480378632683,
BS000118,เดอะมอลล์ท่าพระ,,13.7137399034438,100.4789008473,
BS000117,ตรงข้ามธนบุรีพลาซ่า,,13.7183755530504,100.477816391898,
BS000116,ธนบุรีพลาซ่า,,13.7206671920453,100.477364351198,
BS000115,ตลาดพลู,,13.7217286691384,100.477185249786,
BS000114,สำนักงานเขตบางกอกใหญ่,,13.7273482264606,100.475332904909,
BS000113,สำนักงานเขตบางกอกใหญ่,,13.7286768636804,100.4722865024,
BS000112,วัดประดู่ในทรงธรรม,,13.7279040818213,100.470893240753,
BS000111,โรงเรียนวิมลบริหารธุรกิจ,,13.726915260117,100.469085422061,
BS000110,โรงเรียนวัดนวลนรดิศ,,13.7252472819071,100.465977158552,
BS000109,โรงพยาบาลบางไผ่,,13.72476785,100.46517988,
BS000108,โรงพยาบาลพญาไท 3,,13.7239384032601,100.463643030053,
BS000107,ภัตตาคารเสริมมิตร,,13.722935516076,100.461758663923,
BS000106,ตรงข้ามซอยเพชรเกษม 25/1,,13.72179982,100.45973653,
BS000105,วัดประดู่บางจาก,,13.7197114059253,100.456025238888,
BS000104,มหาวิทยาลัยสยาม,,13.7184873894077,100.453936854243,
BS000103,ซอยเพชรเกษม 40 แยก 1,,13.71774322,100.45211738,
BS000102,โรงเรียนชาญกิจวิทยา,,13.7172082776355,100.450753331653,
BS000101,ซอยเพชรเกษม 46,,13.71609251,100.44709566,
BS000100,ม. สยาม,,13.7156971833427,100.445698804751,
BS000099,ซอยเพชรเกษม 48,,13.71522318,100.44447578,
BS000098,โรงงานรองเท้านันยาง,,13.71456792,100.44235182,
BS000097,สำนักงานเขต ภาษีเจริญ,,13.7135313715282,100.439214973663,
BS000096,ศูนย์การศึกษาปัญญาภิวัฒน์ เพชรเกษม 54,,13.71314010191699,100.4361592428802,
BS000095,ห้างฟิวเจอร์ปาร์คบางแค,,13.7130424715241,100.434245439057,
BS000094,อู่เจริญเซอร์วิส,,13.71272012,100.43131489,
BS000093,หน้าธนาคารแสตนดาร์ดชาเตอร์,,13.71260801,100.42988513,
BS000092,บ้านพักคนชราบางแค,,13.7124804274754,100.427402864789,
BS000091,ตลาดบางแค,,13.7123447874487,100.425347278732,
BS000090,วัดนิมมารนรดี,,13.712204508081,100.423392136372,
BS000089,ห้างโลตัสบางแค,,13.7119432095353,100.420028598229,
BS000088,ศูนย์การเรียนรู้เพื่อการศึกษาภาษาอังกฤษ,,13.71159793,100.41712462,
BS000087,ธนาคารไทยพาณิชย์บางแค,,13.711433815974,100.413581542826,
BS000086,ห้างเดอะมอลล์บางแค,,13.7112299399593,100.409968556191,
BS000085,ต่างระดับกาญจนาภิเศก,,13.71092797146778,100.4080332160431,
BS000084,เพชรเกษม ซอย 51,,13.7104164031393,100.400719949891,
BS000083,เพชรเกษม 92,,13.71000899,100.39800729,
BS000197,อู่แพรกษา,,13.58214063498948,100.6197610152863,
BS000282,หมู่บ้านศิวะนคร แพรกษา,,13.57901447872214,100.6254105658929,
BS000281,หมู่บ้านศิวะนคร,,13.57919598830013,100.6255773845654,
BS000280,บิ๊กซีสมุทรปราการ,,13.5846552,100.60786038,
BS000279,สายลวด,,13.57894166666667,100.6028027777778,
BS000278,ปั๊มน้ำมัน,,13.58117307,100.60175254,
BS000277,โรงเรียนป๊วยฮั้วสมุทรปราการ,,13.58293947985301,100.6009889292386,
BS000276,โรงพยาบาลสมุทรปราการ,,13.58456755342135,100.6001218846027,
BS000275,วงเวียนท้ายบ้าน,,13.59005412380508,100.5974603239923,
BS000274,ศาลากลางจังหวัดสมุทรปราการ,,13.5993170488933,100.59756325328,
BS000273,โรงเรียนสารพัดช่างสมุทรปราการ,,13.6015959145432,100.597259521743,
BS000272,สวนบุญศิริ,,13.6069620045734,100.595472828864,
BS000271,ไปรษณีย์ปากน้ำ,,13.611571183188,100.593762282608,
BS000270,วัดบางนางเกรง,,13.6141275597741,100.592843319126,
BS000269,นารถสุนทร,,13.6164442893546,100.59200639697,
BS000268,โรงนม,,13.6191327439623,100.591047224923,
BS000267,อุดมเดช,,13.6217861435299,100.590087815147,
BS000266,โค้งเกริก,,13.6264985780501,100.588357008958,
BS000265,วัดไตร,,13.63203653583765,100.5900015187274,
BS000264,ฮิตาชิ,,13.6359491214386,100.591569029602,
BS000263,ชัยนิยม,,13.63760340311386,100.5921906523014,
BS000262,ห้างคาร์ฟูร์สำโรง,,13.6399176781788,100.593196436555,
BS000261,แยกเทพารักษ์,,13.6444450382967,100.595087037807,
BS000260,เชิงสะพานสำโรง,,13.64599572517385,100.5956983195074,
BS000259,ตรงข้ามอิมพิเรียลสำโรง,,13.65017833958097,100.5974422533389,
BS000258,ตลาดสำโรง,,13.6512769377356,100.597841553795,
BS000257,ซอยสันติคาม,,13.655912916121,100.59978447702,
BS000256,ซอยแบริ่ง,,13.6584497763375,100.600884076247,
BS000255,BTS แบริ่ง,,13.6609617878849,100.601878106945,
BS000254,หมู่บ้านนภาลัย,,13.6648793280295,100.603447893312,
BS000253,หมู่บ้านนภาลัย,,13.6666965245257,100.604230182297,
BS000252,BTS บางนา,,13.6680062747753,100.604768804386,
BS000251,กรมอุตุนิยมวิทยา,,13.6690052060794,100.605192336887,
BS000250,ไบเทคบางนา,,13.6708276151151,100.605975758745,
BS000249,แยกบางนา,,13.6723822227325,100.606609473666,
BS000248,กรมศุลกากร,,13.71307856200027,100.5646671193416,
BS000247,โลตัสคลองเตย,,13.71815213,100.56694436,
BS000246,ซอยโชคดี,,13.71924101897199,100.5636593478154,
BS000245,ตลาดคลองเตย,,13.7196829668002,100.560675113456,
BS000244,ตลาดปีนัง,,13.7188252714926,100.557799596887,
BS000243,โรงเรียนนนทรีวิทยา,,13.7113089039559,100.551645864186,
BS000242,พระราม 3 ซอย 77,,13.71036389,100.55088294,
BS000241,วัดช่องลม,,13.70483817617303,100.5461175886305,
BS000240,แยกนราธิวาส,,13.7018686376003,100.542186584892,
BS000239,ห้างเซ็นทรัลพระราม 3,,13.6974921334014,100.538097010976,
BS000238,ธนาคารยูโอบีพระราม 3,,13.6959269851532,100.53641299589,
BS000237,ตึกปัจจะ,,13.6962665259938,100.53783770332,
BS000236,ห้างโลตัสพระราม3,,13.69789,100.540104,
BS000235,แยกนราธิวาส,,13.7013711057277,100.542393229899,
BS000234,ถนนเชื้อเพลิง,,13.70978118,100.55070033,
BS000233,ตรงข้าม โรงเรียนนนทรีวิทยา,,13.7110181067317,100.55208240602,
BS000232,ตรงข้ามซอยอมร,,13.7126623302088,100.553682851787,
BS000231,ชุมชนเชื้อเพลิง,,13.7138156612786,100.554862722967,
BS000230,สนามกีฬาการ,,13.7166680377767,100.559921996294,
BS000229,สนามบอล,,13.7161935681977,100.561036878586,
BS000228,หน้าเขต 4,,13.715126684916,100.563700173662,
BS000227,กรมศุลกากร,,13.71392491815428,100.5647746224938,
BS000226,คลองเตย,,13.70997019801542,100.5636162361937,
BS000225,แยกบางนา,,13.6725408170827,100.606367809625,
BS000224,กรมอุตุนิยมวิทยา,,13.6693333191305,100.605019562242,
BS000223,ป้ายรถประจำทางสถานี รถไฟฟ้า BTS บางนา,,13.66801835391331,100.6045095149058,
BS000222,หมู่บ้านนภาลัย,,13.6668236634227,100.604010470284,
BS000221,หมู่บ้านนภาลัย,,13.6643910429965,100.60300515795,
BS000220,ป้ายรถประจำทางสถานี รถไฟฟ้า BTS แบริ่ง,,13.66098625919805,100.6016318848239,
BS000219,ซอยแบริ่ง,,13.6585643060861,100.600624764638,
BS000218,ซอยสันติคาม,,13.6560877483053,100.599634055723,
BS000217,ตลาดสำโรง,,13.6517968422076,100.597849684379,
BS000216,อิมพิเรียลสำโรง,,13.64963813949401,100.5969255805287,
BS000215,ห้างบิ๊กซี ปู่เจ้า,,13.639788588833,100.5929523973964,
BS000214,ปั๊ม ปตท.สำโรง,,13.6374146687744,100.5919669302162,
BS000213,ฮิตาชิ,,13.6360069938892,100.591397668787,
BS000212,โค้งเกริก,,13.6265351745484,100.588128304849,
BS000211,อุดมเดช(กศน.),,13.6217385215153,100.589911908215,
BS000210,โรงนม,,13.6190616835128,100.590884384023,
BS000209,นารถสุนทร,,13.6163766795252,100.591846594269,
BS000208,วัดบางนางเกรง,,13.6139711023666,100.592697426908,
BS000207,ไปรษณีย์ปากน้ำ,,13.6109042962773,100.593811666279,
BS000206,สวนบุญศิริ,,13.6070174127347,100.595250310244,
BS000205,โรงเรียนสารพัดช่างสมุทรปราการ,,13.60150715197,100.597099595355,
BS000204,ศาลากลางจังหวัดสมุทรปราการ,,13.5993461443975,100.597417333981,
BS000203,ตลาดปากน้ำ,,13.5964032476241,100.596234274889,
BS000202,วงเวียนท้ายบ้าน,,13.58995594412978,100.5972648146618,
BS000201,โรงพยาบาลสมุทรปราการ,,13.58468185674045,100.5996838788275,
BS000200,โรงเรียนป๊วยฮั้วสมุทรปราการ,,13.58270074239674,100.6006627007006,
BS000199,ป้ายรถประจำทางสายลวด,,13.57885841405137,100.6027024538405,
BS000198,ตรงข้ามบิ๊กซีสมุทรปราการ,,13.58452809,100.60810457,
BS000381,โรงเรียนปากเกร็ด,,13.9113477444446,100.497874799701,
BS000380,เมเจอร์ฮอลิวูดปากเกร็ด,,13.90786105,100.50265471,
BS000379,ซอยติวานนท์-ปากเกร็ด 3,,13.90348208,100.50512859,
BS000378,ตรงข้ามวิทยาลัยการชลประทาน,,13.89840823,100.50701457,
BS000377,กรมชลประทาน,,13.89257021,100.5092421,
BS000376,โรงเรียนสอนขับรถทิพวัลย์,,13.88719695916142,100.5112074066287,
BS000375,ธ.ออมสิน สาขาติวานนท์,,13.88473764374716,100.512121265832,
BS000374,ตรงข้ามซอยติวานนท์ 50,,13.88356171158419,100.5125325254927,
BS000373,ซอยติวานนท์ 39,,13.88249427437899,100.5129360543812,
BS000372,ซอยติวานนท์ 31,,13.87624178258458,100.5153964373979,
BS000371,ธนาคารทหารไทย,,13.87311181,100.51661768,
BS000370,โรงเรียนสันติวัล,,13.87044845,100.51765249,
BS000369,สถานีวิทยุดาวเทียม นนทบุรี,,13.86728719085865,100.5187296642531,
BS000368,Esplanad Ceneplex,,13.86357741,100.52020743,
BS000367,แคลาย,,13.8583327127252,100.525682351716,
BS000366,องค์การโทรศัพท์งามวงศ์วาน,,13.8580176686083,100.529347161098,
BS000365,บางลำพู 1,,13.8570000267379,100.537294791219,
BS000364,ห้างเดอะมอลล์งามวงศ์วาน,,13.8563876476255,100.541758813165,
BS000363,แยกพงษ์เพชร,,13.8559287544787,100.545820601753,
BS000362,ชินเขตน์ 1,,13.8545413667075,100.548514946993,
BS000361,ชินเขตน์ 2,,13.8528709901114,100.551478057766,
BS000360,เรือนจำกลางคลองเปรม,,13.8505813266922,100.555752834962,
BS000359,เรือนจำลาดยาว,,13.8494774482889,100.557610019902,
BS000358,การไฟฟ้าภูมิภาค,,13.8447526741217,100.566156040685,
BS000357,ม.เกษตร,,13.8423336946353,100.570494419219,
BS000356,ตลาดอมรพันธ์,,13.8401362924354,100.574464505941,
BS000355,เกษตรอมรภัณฑ์,,13.8389922534712,100.575026367588,
BS000354,ตรงข้ามธนาคารกรุงเทพ สาขาเสนา,,13.83788313293401,100.5744671650927,
BS000353,เสนา,,13.8365476477883,100.573626121136,
BS000352,ตรงข้ามโรงพยาบาลเมโย,,13.83526150509997,100.5728663898396,
BS000351,ซอยเสนานิคม,,13.8341582799887,100.572202006296,
BS000350,โรงพยาบาลเมโย,,13.831610154479,100.570714082832,
BS000349,ตรงข้ามโรงเรียนเมทารักษ์การบริบาร,,13.8305624,100.57019384,
BS000348,โรงเรียนไทยวิจิตรศิลป์,,13.829451153841,100.569431919186,
BS000347,ห้างเมเจอร์รัชโยธิน,,13.8279945668746,100.568565315167,
BS000346,ตึกช้าง,,13.8255794698302,100.567168377667,
BS000345,โรงเรียนสตรีวรนารถ,,13.824156640167,100.566342239118,
BS000344,โรงเรียนสตรีวรนารถ,,13.8223448517805,100.565228123733,
BS000343,กองปราบปราม,,13.8195849629725,100.563630466113,
BS000342,กองทะเบียนปราบปราม,,13.8181330319307,100.562755202288,
BS000341,ห้างเซ็นทรัลลาดพร้าว,,13.81626257715666,100.5615584490139,
BS000340,MRT พหลโยธิน,,13.8147391662475,100.560509353025,
BS000339,ธนาคารทหารไทย สนญ,,13.8085188249261,100.556998813239,
BS000338,จตุจักร,,13.80388861362,100.554183238136,
BS000337,ตลาดนัดจตุจักร,,13.7985595817722,100.548512907769,
BS000336,ตลาดนัดจตุจักร,,13.8005944418884,100.548473924642,
BS000335,เจเจมอลล์,,13.8016684824799,100.548395086013,
BS000334,สวนสิริกิติ์,,13.8054375779319,100.548275113663,
BS000333,ท่ารถประจำทางหมอชิต,,13.8109070222117,100.547738150811,
BS000332,สวนสิริกิติ์,,13.8054220627873,100.547973220999,
BS000331,ตรงข้ามตลาดนัดจตุจักร,,13.80175844219966,100.548121071229,
BS000330,สวนจตุจักร,,13.80037223908308,100.5481377362527,
BS000329,สวนจตุจักร,,13.8000405467412,100.552410751681,
BS000328,BTS หมอชิต,,13.8025717710927,100.553861683658,
BS000327,จตุจักร,,13.8037420802035,100.554602743225,
BS000326,ธนาคารทหารไทย สนญ,,13.8084810113387,100.557345544676,
BS000325,ห้างเซ็นทรัลลาดพร้าว,,13.8147632561668,100.561107100602,
BS000324,ห้างเซ็นทรัลลาดพร้าว,,13.8162897901714,100.561919834618,
BS000323,กองปราบปราม,,13.8193808069637,100.563741683635,
BS000322,โรงเรียนสตรีวรนารถ,,13.8222149379951,100.565414882919,
BS000321,โรงเรียนสตรีวรนารถ,,13.824076092435,100.566513603899,
BS000320,ตึกช้าง,,13.8254340804468,100.567320548566,
BS000319,ห้างเมเจอร์รัชโยธิน,,13.8278683946814,100.568789771584,
BS000318,โรงเรียนไทยวิจิตรศิลป์,,13.8293492064538,100.56963637906,
BS000317,โรงเรียนเมทารักษ์การบริบาร,,13.83021348,100.57009827,
BS000316,โรงพยาบาลเมโย,,13.831397287523,100.570841191777,
BS000315,ซอยเสนานิคม,,13.8340588526929,100.572356287583,
BS000314,โรงพยาบาลเมโย,,13.8352273788693,100.573046885995,
BS000313,เสนา,,13.8364379493119,100.573768025779,
BS000312,ธนาคารกรุงเทพ สาขาเสนา,,13.83785820629476,100.5745830429915,
BS000311,แยกเกษตร,,13.838786936901,100.575134707595,
BS000310,ม.เกษตร,,13.842604117262,100.570608589076,
BS000309,การไฟฟ้าภูมิภาค,,13.8450056400873,100.566327685348,
BS000308,เรือนจำลาดยาว,,13.8496986080627,100.557887385007,
BS000307,เรือนจำกลางคลองเปรม,,13.85079,100.55592,
BS000306,ชินเขตน์ 2,,13.8531736818624,100.551637042394,
BS000305,ชินเขตน์ 1,,13.8549074665248,100.548575506983,
BS000304,แยกพงษ์เพชร,,13.8561530120279,100.546038489395,
BS000303,ห้างเดอะมอลล์งามวงศ์วาน,,13.8567538696721,100.54184217201,
BS000302,บางลำพู 1,,13.8573790780382,100.537143664224,
BS000301,องค์การโทรศัพท์งามวงศ์วาน,,13.858305723031,100.529320982297,
BS000300,แคลาย,,13.8587686013772,100.525690152752,
BS000299,ตรงข้าม Esplanad Ceneplex,,13.86325918618278,100.5205529631006,
BS000298,ตรงข้ามสถานีวิทยุดาวเทียม นนทบุรี,,13.86702852,100.51904769,
BS000297,ตรงข้ามโรงเรียนสันติวัล,,13.8694755545054,100.5181954011501,
BS000296,ซอยติวานนท์ 36,,13.87273319,100.51695173,
BS000295,โตโยต้าเมืองนนทบุรี,,13.87982066,100.51424142,
BS000294,ซอยสถิตย์ยุทธการ 5,,13.88254617721666,100.5132278597727,
BS000293,ซอยติวานน์ 50,,13.88357722577782,100.5127905095822,
BS000292,ซอยติวานนท์ 50/1,,13.88474114,100.51236436,
BS000291,หน้าร้านอาหารเยาวราช,,13.88745018,100.51133586,
BS000290,โรงเรียนชลประทานสงเคราะห์,,13.89425437937114,100.5087965266415,
BS000289,วิทยาลัยการชลประทาน,,13.89800338,100.50737143,
BS000288,ซอยติวานนท์-ปากเกร็ด 12,,13.90395698824758,100.5051540186906,
BS000287,ตรงข้ามที่ทำการไปรษณีย์ห้าแยกปากเกร็ด,,13.906109,100.50436007,
BS000286,ตรงข้ามเมเจอฮอลิวูดปากเกร็ด,,13.90805672,100.50299722,
BS000285,โรงเรียนสยามทัศน์,,13.90967055,100.50045876,
BS000284,โรงเรียนปากเกร็ด,,13.9115769616545,100.498102534,
BS000283,วัดบ่อ,,13.9128901259903,100.496878333303,
BS000382,ท่ารถสาย 105 มหาชัยเมืองใหม่,,13.58959375338557,100.3299477963338,
BS000462,วัดโคกคราม,,13.59256239375948,100.3437758031517,
BS000461,วัดพันท้ายนรสิงห์,,13.59704056075861,100.3651961926298,
BS000460,บริษัท ฮีโน่ มอเตอร์,,13.60504908909045,100.3731070439734,
BS000459,วัดพรหมรังสี,,13.61462197114013,100.3823813639109,
BS000458,ซอยพระรามที่ 2 ซอย 85,,13.61847894697795,100.3861699177355,
BS000457,คลองระหาร,,13.62168428871758,100.3894240711817,
BS000456,ซอยโฟร์โมส,,13.62574621456643,100.3933788850207,
BS000455,ฟาร์มไก่ชนพม่า พระราม 2,,13.62914448494769,100.3967433087364,
BS000454,บางกระดี่,,13.63283220513844,100.400446704553,
BS000453,อมรชัย 4,,13.63587517820639,100.4034414731763,
BS000452,หมู่บ้านพระราม 2,,13.63874422518722,100.4063435883359,
BS000451,สะแกงาม,,13.6446802689555,100.4140890053927,
BS000450,โรงเรียนรัตนโกสินทร์สมโภชบางขุนเทียน,,13.6473626757389,100.4178471420076,
BS000449,โรงเรียนรัตนโกสินทร์สมโภชบางขุนเทียน,,13.64937955597287,100.4206100110916,
BS000448,การไฟฟ้าย่อยบางขุนเทียน,,13.65280600958971,100.4252616119298,
BS000447,หัวกระบือ,,13.65554718429666,100.428891868924,
BS000446,สำนักงานเขตบางขุนเทียน,,13.65990422580316,100.4359175352432,
BS000445,ห้างบิ๊กซีพระราม2,,13.66250384842415,100.4400777011862,
BS000444,ศาลเจ้าแม่งู,,13.66567172891555,100.4452922604561,
BS000443,วัดเลา,,13.66720451479317,100.4481068226302,
BS000442,วัดกก,,13.66881817780878,100.4505762020218,
BS000441,สถานีตำรวจบางมด,,13.67243336066046,100.4566730896834,
BS000440,หมู่บ้านชิชา,,13.6744975780772,100.460005405983,
BS000439,ซอยโรงแก้ว,,13.7074431025755,100.486726541861,
BS000438,รพ.สมเด็จพระปิ่นเกล้า,,13.7101514409038,100.487669103078,
BS000437,สำนักงานไปรษณีย์สำเหร่,,13.7112328164364,100.488031007677,
BS000436,ตลาดสำเหร่,,13.7126786534922,100.488537712562,
BS000435,รพ.กรุงธน,,13.7145276397418,100.489163925305,
BS000434,ตากสิน ซอย 11,,13.7165550870471,100.489866596935,
BS000433,รพ.กรุงธนบุรี,,13.7189557872472,100.490683302211,
BS000432,ศาลเจ้าแซ่ซิ้ม,,13.719858465985,100.491007903427,
BS000431,เจริญรัถ 2,,13.72427662,100.49253983,
BS000430,วงเวียนใหญ่,,13.7252345856151,100.492866180146,
BS000429,ห้างโรบินสันลาดหญ้า,,13.7264664101429,100.49425774939,
BS000428,ลาดหญ้า,,13.7271541422079,100.496932100234,
BS000427,ลาดหญ้า ซอย 14,,13.72755101645,100.498770718699,
BS000426,ธนบุรีคาเฟ่,,13.72786769431,100.499914662766,
BS000425,ท่าคลองสาน,,13.7292733776954,100.505784162875,
BS000424,ท่าน้ำคลองสาน,,13.7295663388009,100.508675473956,
BS000423,คลองสาน,,13.7279708320629,100.508790195768,
BS000422,สหกรณ์กรุงเทพ,,13.7264740752893,100.508929203033,
BS000421,วัดสุวรรณ,,13.7246934324582,100.509010572802,
BS000420,ท่าวัดสุวรรณ,,13.723848247358,100.509007683197,
BS000419,สำเหร่,,13.7211042096817,100.50875232219,
BS000418,โรงเรียนสัจวัฒน์,,13.72121,100.501596,
BS000417,แยกสาทร,,13.7211585730001,100.492798368701,
BS000416,ศาลเจ้าแซ่ซิ้ม,,13.7198661198402,100.490721806165,
BS000415,รพ.กรุงธนบุรี,,13.7190367961648,100.490456479041,
BS000414,ตากสิน ซอย 11,,13.7165680686043,100.489613383663,
BS000413,รพ.กรุงธน,,13.7146392826862,100.488878909647,
BS000412,ตลาดสำเหร่,,13.712526725924,100.488202671797,
BS000411,สำนักงานไปรษณีย์สำเหร่,,13.7112879116318,100.487784960624,
BS000410,รพ.สมเด็จพระปิ่นเกล้า,,13.7100765535939,100.487371010012,
BS000409,โรงแก้ว,,13.7075171773081,100.486475933742,
BS000408,สมาคมฮิเหน่,,13.6750844756028,100.459736344379,
BS000407,สถานีตำรวจบางมด,,13.67296285958341,100.4561393950584,
BS000406,วัดกก,,13.66932708333442,100.4500995951029,
BS000405,วัดเลา,,13.66793176352682,100.4477787919658,
BS000404,ศาลเจ้าแม่งู,,13.66622921898595,100.4449467723625,
BS000403,ซอยวัดกำแพง,,13.664721931846,100.4425060062867,
BS000402,ห้างเซ็นทรัลพระราม 2,,13.66295437263576,100.4395082512494,
BS000401,สำนักงานเขตบางขุนเทียน,,13.66045176630795,100.4354489926228,
BS000400,ซอยพระรามที่ 2 ซอย 58,,13.65791922211852,100.4313119364773,
BS000399,หัวกระบือ,,13.65611280171332,100.4285190004222,
BS000398,การไฟฟ้าย่อยบางขุนเทียน,,13.6534921234305,100.4248129599292,
BS000397,รพ.พระราม 2,,13.65138740322512,100.4221141963247,
BS000396,บิ๊กซีการเคหะ พระราม 2,,13.64987465045696,100.4200537148899,
BS000395,พระรามที่ 2 ซอย 66,,13.64848962495663,100.418318737929,
BS000394,สะแกงาม,,13.64528075462651,100.4139007067643,
BS000393,หมู่บ้านพระราม 2,,13.63910809638333,100.4057186546917,
BS000392,อมรชัย 4,,13.63638048663553,100.4029783215729,
BS000391,บางกระดี่,,13.6335691408032,100.400006081805,
BS000390,ซอยพระรามที่ 2 ซอย 86,,13.62788630301763,100.3946836498201,
BS000389,ซอยโฟรโมส,,13.62606662787138,100.392705117196,
BS000388,คลองระหาร,,13.6221134245723,100.3888725348332,
BS000387,วัดพรหมรังสี,,13.6150443147388,100.381751400549,
BS000386,บริษัท ฮีโน่ มอเตอร์,,13.60525812857085,100.3723420438886,
BS000385,บางน้ำจืด,,13.59749250263868,100.3647127555722,
BS000384,วัดโคกคราม,,13.59331030666505,100.3438490883673,
BS000383,ท่ารถสาย 105 มหาชัยเมืองใหม่,,13.59001260327315,100.3297577571802,
BS000463,อู่บางเขน,,13.86982456373043,100.5928894387291,
BS000516,อู่บางเขน,,13.8687009489193,100.592462402721,
BS000515,ธนาคารอาคารสงเคราะห์,,13.8661815485883,100.591010528042,
BS000514,ตรงข้ามบ้านพักกองทัพบก,,13.8645394232372,100.590059579685,
BS000513,กรมทหารราบ 11,,13.8631196310343,100.589223434727,
BS000512,กรมที่ดินบางเขน,,13.8599889300968,100.587372489082,
BS000511,วัดบางบัว,,13.8570019611631,100.585608869401,
BS000510,มหาวิทยาลัยศรีปทุม,,13.8549925284998,100.584415079626,
BS000509,โรงเรียนสารวิทยา,,13.8513030793622,100.582278928219,
BS000508,กรมวิทยาศาสตร์ทหารบก,,13.8492355574391,100.581035964242,
BS000507,กรมป่าไม้,,13.84823064113381,100.5804725996809,
BS000506,โรงแรมมารวย,,13.84529534721921,100.5787075641903,
BS000505,โรงแรมมารวย,,13.8437395247355,100.577824433644,
BS000504,กรมป่าไม้,,13.842471155502,100.57707969596,
BS000503,การบินไทย (สำนักงานใหญ่),,13.804500310149,100.559953608406,
BS000502,ซอยโชคชัยร่วมมิตร,,13.7966093390514,100.560679579739,
BS000501,แยกสุทธิสาร,,13.78961123031664,100.5610864370821,
BS000500,ซอยแลนด์โก้,,13.78641268037149,100.5601289135199,
BS000499,ศูนย์ฝึกรักษาดินแดน,,13.7835172706927,100.558514628493,
BS000498,ศูนย์การฝึกรักษาดินแดน,,13.7813932395525,100.55731580365,
BS000497,ตรงข้ามกระทรวงแรงงาน,,13.7795673210696,100.556167138991,
BS000496,มหาวิทยาลัยหอการค้า,,13.7773879958618,100.554975957724,
BS000495,โรงเรียนสุรศักดิ์มนตรี,,13.7711402816779,100.551573555717,
BS000494,ปราบปรามยาเสพติด,,13.765800339242,100.54884878603,
BS000493,อู่คลองเตย,,13.715958947394,100.56596504709,
BS000492,ท่าคลองเตย,,13.71613949714518,100.5654299809331,
BS000491,ท่าคลองเตย,,13.7159889795414,100.565382591586,
BS000490,ปราบปรามยาเสพติด,,13.7656893418437,100.549173601742,
BS000489,โรงเรียนสุรศักดิ์มนตรี,,13.7708233093302,100.55213414924,
BS000488,มหาวิทยาลัยหอการค้า,,13.7769014969992,100.55566352834,
BS000487,ศูนย์การฝึกรักษาดินแดน,,13.7810407519359,100.557925819638,
BS000486,ศูนย์ฝึกรักษาดินแดน,,13.7832201458879,100.559123602228,
BS000485,แยกสุทธิสาร,,13.78879111269845,100.5618023581502,
BS000484,ซอยโชคชัยร่วมมิตร,,13.7969659457633,100.561259843928,
BS000483,การบินไทย (สำนักงานใหญ่),,13.8044573524253,100.560501351027,
BS000482,โรงเรียนเซนต์จอห์น,,13.8107820117229,100.560030922105,
BS000481,กองทะเบียนปราบปราม,,13.8181531771685,100.56301527791,
BS000480,กรมป่าไม้,,13.8422263176,100.577220732873,
BS000479,โรงแรมมารวย,,13.8436362855807,100.578058403547,
BS000478,โรงแรมมารวย,,13.8451425919336,100.578916734026,
BS000477,ตรงข้ามกรมป่าไม้,,13.84809172,100.58063204,
BS000476,กรมวิทยาศาสตร์ทหารบก,,13.8491793531258,100.581280980821,
BS000475,โรงเรียนสารวิทยา,,13.851597428459,100.582738176554,
BS000474,มหาวิทยาลัยศรีปทุม,,13.8549088873118,100.584657357792,
BS000473,วัดรางบัว,,13.8568720157373,100.585812604432,
BS000472,กรมทหารราบกองพัน 1,,13.8597444965719,100.587533761085,
BS000471,กรมทหารราบที่ 11,,13.8629913489936,100.589407457425,
BS000470,ตรงข้ามบ้านพักกองทัพบก,,13.8644117946436,100.590248939009,
BS000469,ธนาคารอาคารสงเคราะห์,,13.8659701801237,100.591205525967,
BS000468,อู่บางเขน,,13.8684563276052,100.592665715465,
BS000467,ไฟฟ้าบางเขน,,13.8710364188882,100.594213132595,
BS000466,การไฟฟ้าบางเขน,,13.8729720799888,100.595410657028,
BS000465,การไฟฟ้าบางเขน,,13.8731903157232,100.595104457132,
BS000464,วัดพระศรีบางเขน,,13.8710055534316,100.593824516159,
BS000675,ซอยสวนสยาม 20,,13.80425329291642,100.6914393185519,
BS000674,ตรงข้ามโรงเรียนอนุบาลสวนสยาม,,13.8023948,100.69101,
BS000673,ตรงข้ามศูนย์โตโยต้า,,13.79474178566967,100.6895063419987,
BS000672,สุเหร่าแดง,,13.7937622759149,100.6872685448839,
BS000671,ตรงข้ามเรือนทองนิเวศน์,,13.7928024442205,100.684783780263,
BS000670,นวธานี,,13.7883624822231,100.6775478860705,
BS000669,หมู่บ้านเปี่ยมสุข,,13.78497335985668,100.674592071288,
BS000668,สุเหร่าคลองกุ่ม,,13.78286999599983,100.6724983708143,
BS000667,ซอยสุขสม,,13.78083832530544,100.6694201561576,
BS000666,คลองบางเตย,,13.77998599655744,100.6679151065979,
BS000665,โรงเรียนชินวร,,13.77866825626024,100.665329422534,
BS000664,ซอยตาเซียน,,13.7769152791872,100.661578083083,
BS000663,ซอยรอดอนันต์ 4,,13.7753800949377,100.658716179471,
BS000662,แยกนิด้า,,13.7719397848895,100.653841350194,
BS000661,มหาวิทยาลัยนิด้า,,13.7706564268006,100.65298599265,
BS000660,โรงเรียนบ้านบางกะปิ,,13.769230238289,100.651782303274,
BS000659,วัดศรีบุญเรือง,,13.7679462249126,100.650497642703,
BS000658,แยกบางกะปิ,,13.7665498484003,100.648401928722,
BS000657,ตลาดบางกะปิ,,13.7662949217189,100.64675572092,
BS000656,แยกลำสาลี,,13.7633267970663,100.645521688032,
BS000655,รามคำแหง ซอย 50,,13.7625563415525,100.643187835219,
BS000654,โรงพยาบาลรามคำแหง,,13.7621375699614,100.639635079703,
BS000653,รามคำแหง ซอย 34,,13.7617505721093,100.6364975863,
BS000652,บริษัทไทยน้ำทิพย์รามคำแหง,,13.7614967918164,100.634010950908,
BS000651,ซอยรามคำแหง 77,,13.76115902,100.63115356,
BS000650,บริษัทโอสถสภารามคำแหง,,13.7609564945065,100.629268281271,
BS000649,สถานีตำรวจหัวหมาก,,13.7607241195321,100.627305226244,
BS000648,สนามกีฬาหัวหมาก,,13.7604679450653,100.624670064319,
BS000647,รามคำแหง 61,,13.76019035257068,100.6228693778885,
BS000646,ม.รามคำแหง,,13.7599841380771,100.620265422443,
BS000645,มหาวิทยาลัยรามคำแหง,,13.7597154249846,100.618682065543,
BS000644,ปากซอยซอยรามคำแหง 43/1,,13.758973752681,100.616997465167,
BS000643,โรงเรียนวัดเทพลีลา,,13.7585253198603,100.616585759606,
BS000642,ห้างเวลโก้รามคำแหง,,13.7561813395754,100.614169838837,
BS000641,หมู่บ้านเสรี,,13.7552758484844,100.613235980715,
BS000640,รามคำแหง ซอย 25,,13.7543477922653,100.612285452905,
BS000639,ห้างเดอะมอลล์รามคำแหง,,13.7521742847227,100.610096166976,
BS000638,โรงเรียนอนุบาลใจทิพย์,,13.75116426,100.60923047,
BS000637,เพอร์เฟคเพลส,,13.7494180031028,100.607321469527,
BS000636,โรงพยาบาลแพทย์ปัญญา,,13.7459356663435,100.603928974623,
BS000635,โรงพยาบาลแพทย์ปัญญา,,13.7451703658743,100.60311498123,
BS000634,การไฟฟ้าย่อยบางกะปิ,,13.7437885064627,100.601727376038,
BS000633,การไฟฟ้าย่อยคลองตัน,,13.741839933114,100.601418063937,
BS000632,ตลาดคลองตัน,,13.7406740095943,100.600225030752,
BS000631,ตรงข้ามโรงเรียนเขียนแบบก่อสร้างและเครื่องกล,,13.7401205275224,100.5993958432897,
BS000630,สะพานคลองตัน,,13.7384345722112,100.598568146264,
BS000629,ปรีดีพนมยงค์ 45,,13.73685075340366,100.5981984863385,
BS000628,ปรีดีพนมยงค์ ซอย 44,,13.7349907757124,100.597680697936,
BS000627,โรงเรียนเกษมโพลีเทคนิค,,13.7323594492139,100.596956365511,
BS000626,มีสุวรรณกวดวิชา,,13.73085537220196,100.5966089373059,
BS000625,สุเหร่าสามอิน,,13.7279118010568,100.59590814821,
BS000624,ปรีดีพนมยงค์ ซอย 28,,13.7264726877237,100.595851951128,
BS000623,ปรีดีพนมยงค์ 19,,13.72467625666034,100.5958122722738,
BS000622,ปรีดีพนมยงค์ ซอย 18,,13.7226228594434,100.595752818165,
BS000621,โรงเรียนพิบูลย์เวช,,13.7207303301063,100.595672677023,
BS000620,ห้างจัสโก้พระโขนง,,13.7192163704152,100.595696907295,
BS000619,ตลาดพระโขนง,,13.7159432688662,100.595062438717,
BS000618,โรงเรียนพระโขนงวิทยา,,13.7128582890447,100.589305654751,
BS000617,ซอยฟาร์มวัฒนา,,13.7130043575854,100.586420191535,
BS000616,แยกกล้วยน้ำไท,,13.7130540234499,100.584294221595,
BS000615,ซอยเจียรสวัสดิ์,,13.7131096954388,100.58185884966,
BS000614,มหาวิทยาลัยกรุงเทพกล้วยน้ำไท,,13.7133908915912,100.580433244364,
BS000613,ศาลเจ้าพ่อกวนอู,,13.71456779799978,100.5775639523075,
BS000612,โรงพยาบาลเทพธารินทร์,,13.7152102171641,100.576147281424,
BS000611,บอสทาวเวอร์,,13.7165009270075,100.5731053612523,
BS000610,คาร์ฟูพระราม 4,,13.71760107,100.57070252,
BS000609,ห้างโลตัสพระราม 4,,13.7182269095535,100.569017504561,
BS000608,การไฟฟ้าคลองเตย,,13.721311338605,100.556687660187,
BS000607,โรงงานยาสูบ,,13.7219535706519,100.555204810468,
BS000606,คลองเตย,,13.7225157687531,100.554067842978,
BS000605,บ่อนไก่,,13.7238861398686,100.550519149913,
BS000604,สวนลุมพินี,,13.72535738985464,100.5469741685798,
BS000603,สวนลุม,,13.7277668808941,100.541204718164,
BS000602,โรงแรมดุสิต,,13.7287878056822,100.538862805309,
BS000601,โรงพยาบาลจุฬาลงกรณ์,,13.7298981094442,100.535922534241,
BS000600,สถานเสาวภา,,13.7315679886641,100.532166663157,
BS000599,โรงแรมแมนดาริน,,13.7342045847291,100.525689998833,
BS000598,ซอยหมอสุ่น,,13.7348015671488,100.524208901957,
BS000597,สะพานเหลือง,,13.7359223862652,100.521419122975,
BS000596,ศาลแรงงาน,,13.7364154384451,100.520122343284,
BS000595,สถานีรถไฟหัวลำโพง,,13.7375855072071,100.5175063729528,
BS000594,สถานีรถไฟหัวลำโพง,,13.7372248051714,100.517392421256,
BS000593,ศาลแรงงาน,,13.7362163984607,100.519863778922,
BS000592,สะพานเหลือง,,13.7357519548614,100.521126706663,
BS000591,ซอยหมอสุ่น,,13.7346614497339,100.523791984048,
BS000590,โรงแรมแมนดาริน,,13.7338707915646,100.525703382011,
BS000589,สถานเสาวภา,,13.7310286837348,100.532685550113,
BS000588,สถานเสาวภา,,13.7302976088381,100.534372283742,
BS000587,โรงแรมดุสิต,,13.7288351623036,100.537796959288,
BS000586,สวนลุม,,13.7275077453629,100.540981648794,
BS000585,ลุมพินี ประทุมวัน,,13.72541730476986,100.5460932594472,
BS000584,บ่อนไก่,,13.7236352437883,100.550398192138,
BS000583,โรงงานยาสูบ,,13.7216421891776,100.555218837401,
BS000582,การไฟฟ้าคลองเตย,,13.7209424836521,100.55683909882,
BS000581,ตลาดคลองเตย,,13.7197004839971,100.559984066297,
BS000580,ซอยชัยมงคล 1,,13.71913385415487,100.5639629816474,
BS000579,ร้านอาหารสรทอง,,13.71921404,100.56628254,
BS000578,ห้างโลตัสพระราม 4,,13.7181440590206,100.568774778078,
BS000577,ตรงข้ามบอสทาวเวอร์,,13.71621778032784,100.5734478117913,
BS000576,โรงพยาบาลเทพธารินทร์,,13.7150740149773,100.576103932173,
BS000575,กวลกลการ,,13.71447345299802,100.5775336025684,
BS000574,มหาวิทยาลัยกรุงเทพกล้วยน้ำไท,,13.7131947734836,100.580405438135,
BS000573,ซอยเจียรสวัสดิ์,,13.7129276801335,100.581877367908,
BS000572,แยกกล้วยน้ำไท,,13.712846079191,100.584285575834,
BS000571,ซอยฟาร์มวัฒนา,,13.7127432230592,100.586449899679,
BS000570,โรงเรียนพระโขนงวิทยา,,13.7126297184746,100.589310127094,
BS000569,กล้วยน้ำไทแสตนเลส,,13.71311461,100.59119671,
BS000568,ตลาดพระโขนง,,13.7159100802221,100.595284351682,
BS000567,ห้างจัสโก้พระโขนง,,13.7192123039468,100.595827243819,
BS000566,โรงเรียนพิบูลย์เวช,,13.7207601550096,100.595880626799,
BS000565,ปรีดีพนมยงค์ ซอย 18,,13.7226573013481,100.595901160176,
BS000564,ปรีดีพนมยงค์ 24,,13.72520560827134,100.59592185193,
BS000563,ปรีดีพนมยงค์ ซอย 28,,13.7264937885975,100.595994726553,
BS000562,สุเหร่าสามอิน,,13.7278867458412,100.596041265337,
BS000561,ปรีดีพนมยงค์ 38,,13.73063844031302,100.5966772915224,
BS000560,โรงเรียนเกษมโพลีเทคนิค,,13.7324297188866,100.597118760133,
BS000559,ปรีดีพนมยงค์ ซอย 44,,13.7349201542183,100.597776487809,
BS000558,สะพานคลองตัน,,13.7385219165729,100.598738896372,
BS000557,โรงเรียนเขียนแบบก่อสร้างและเครื่องกล,,13.73993091419862,100.5994658133957,
BS000556,ตลาดคลองตัน,,13.7405644231823,100.600432500252,
BS000555,การไฟฟ้าย่อยคลองตัน,,13.7420105120536,100.601586556673,
BS000554,การไฟฟ้าย่อยบางกะปิ,,13.74367962376,100.601979501891,
BS000553,โรงพยาบาลแพทย์ปัญญา,,13.744996,100.603301,
BS000552,โรงพยาบาลแพทย์ปัญญา,,13.7458606177508,100.604099216352,
BS000551,เพอร์เฟคเพลส,,13.7492592771454,100.607506385201,
BS000550,ห้างเดอะมอลล์รามคำแหง,,13.75200296561,100.610275300942,
BS000549,รามคำแหง ซอย 20,,13.754404980638,100.612650193015,
BS000548,หมู่บ้านเสรี,,13.7551584938406,100.613448519972,
BS000547,ห้างเวลโก้รามคำแหง,,13.7560604529245,100.614334203766,
BS000546,มหาวิทยาลัยรามคำแหง,,13.7592861064957,100.618698948548,
BS000545,ม.รามคำแหง,,13.7596337786791,100.620307770413,
BS000544,สนามกีฬาหัวหมาก,,13.7602031367094,100.624648357188,
BS000543,สถานีตำรวจหัวหมาก,,13.7605471956813,100.627248430659,
BS000542,บริษัทโอสถสภารามคำแหง,,13.7607974612383,100.629551083651,
BS000541,ซอยรามคำแหง 26/1,,13.76093706341049,100.6308718041402,
BS000540,บริษัทไทยน้ำทิพย์รามคำแหง,,13.7612638942098,100.634029789748,
BS000539,รามคำแหง ซอย 34,,13.7615646907615,100.636521836826,
BS000538,โรงพยาบาลรามคำแหง,,13.7619066414356,100.639762113006,
BS000537,รามคำแหง ซอย 50,,13.7622629619421,100.642899038344,
BS000536,แยกลำสาลี,,13.763220263651,100.645716384597,
BS000535,ตลาดบางกะปิ,,13.7660899320184,100.646799327755,
BS000534,แยกบางกะปิ,,13.7663506405327,100.648389057393,
BS000533,วัดศรีบุญเรือง,,13.7679368802231,100.65080353258,
BS000532,มหาวิทยาลัยนิด้า,,13.7705369897153,100.653133466602,
BS000531,แยกนิด้า,,13.7718150523109,100.654035259067,
BS000530,ซอยรอดอนันต์ 4,,13.7751987953325,100.658837007709,
BS000529,ซอยตาเซียน,,13.7767428779086,100.661644843662,
BS000528,โรงเรียนชินวร,,13.77850991232322,100.6655012729597,
BS000527,คลองบางเตย,,13.77984084936494,100.668079274702,
BS000526,ซอยสุขสม,,13.78072008622137,100.6695322395909,
BS000525,สุเหร่าคลองกุ่ม,,13.78269207451272,100.67263208945,
BS000524,หมู่บ้านเปี่ยมสุข,,13.78479331205093,100.6747514487896,
BS000523,ตรงข้ามนวธานี,,13.7885131107052,100.678014320058,
BS000522,ตรงข้ามบ.พานาโซนิค,,13.7908896512709,100.680979694305,
BS000521,เรือนทองนิเวศน์,,13.7925111565542,100.684951408931,
BS000520,ตรงข้ามสุเหร่าแดง,,13.79357632206865,100.6873921033818,
BS000519,ศูนย์โตโยต้า,,13.7945216549298,100.6896805622699,
BS000518,คริสจักรนาซารีน,,13.8013272,100.6907828,
BS000517,ตรงข้ามซอยสวนสยาม 20,,13.8041219,100.6918286,
BS000777,อ่อนนุช ซอย 88,,13.7212518705139,100.694281352267,
BS000776,วัดกระทุ่มเสือปลาอ่อนนุช ซอย 67,,13.7209987650872,100.689970960169,
BS000775,อ่อนนุช ซอย 84,,13.7207038640826,100.684846779345,
BS000774,อ่อนนุช ซอย 63,,13.72049,100.6806,
BS000773,หมู่บ้านชมเดือน อ่อนนุช 59/1,,13.720124,100.677335,
BS000772,ซอยอ่อนนุช 59,,13.7196770653262,100.674369335221,
BS000771,สุเหร่าทางควาย,,13.7192092911283,100.671113252198,
BS000770,บริษัท SCS,,13.718597620297,100.66678506094,
BS000769,แยกผาสุก,,13.7175235949268,100.660540565808,
BS000768,ซอยอนามัย,,13.7209264860151,100.642259618304,
BS000767,หมู่บ้านนราสิริ,,13.7284360653763,100.641673118263,
BS000766,อาคารจิตรวรนันท์,,13.7306997106908,100.641518403998,
BS000765,แยกพัฒนาการ,,13.735030167163,100.641198348941,
BS000764,ศูนย์อนามัย 37,,13.73607698381842,100.6378133880519,
BS000763,หมู่บ้านเคหะนคร 3,,13.73640381859024,100.635414093834,
BS000762,หมู่บ้านปรีชา 3,,13.73681303756978,100.6323426423346,
BS000761,อุโมงค์ลอดถนนพัฒนาการ,,13.7370105346633,100.6305670188554,
BS000760,มหาวิทยาลัยเกษมบัณฑิต,,13.73732276545917,100.6265607896416,
BS000759,ซอยนาคนาวา (พัฒนาการ 34),,13.73699711500117,100.6231667713905,
BS000758,โรงเรียนอนุบาลสายทิพย์,,13.7368033134984,100.620540354664,
BS000757,หมู่บ้านแหลมทอง,,13.73674943463134,100.6191320224856,
BS000756,ท่ารถสาย 92 พัฒนาการ,,13.7365179140551,100.6159735899586,
BS000755,ศูนย์อีซูซุพัฒนาการ,,13.73645724976479,100.6127793236492,
BS000754,ธนาคารกสิกรไทยพัฒนาการ,,13.73779495456686,100.6089494920365,
BS000753,อิสานตะวันแดง,,13.73922426543007,100.6052013569092,
BS000752,ตลาดคลองตัน,,13.7415184137368,100.59958340364,
BS000751,โรงพยาบาลเพชรเวช,,13.7427336865597,100.594100314857,
BS000750,เมรี อาบอบนวด,,13.7431499638982,100.592168511505,
BS000749,แยกทองหล่อเหนือ,,13.7435623436708,100.590221461665,
BS000748,ศูนย์วิจัย,,13.7447882645667,100.584985422108,
BS000747,โรงพยาบาลกรุงเทพ,,13.745291575767,100.582786960108,
BS000746,ตรงข้ามสหพัฒนพิบูลย์,,13.7461360439897,100.579020003861,
BS000745,ตรงข้าม วัดใหม่ช่องลม,,13.7470169582476,100.575072806356,
BS000744,สุกี้เรือนเพชร,,13.7480794941343,100.570429162722,
BS000743,ตรงข้าม มหาวิทยาลัย มศว. ประสานมิตร,,13.7487136357466,100.566133932314,
BS000742,ตรงข้ามโรงเรียนเซนต์ดอมินิก,,13.7495035746011,100.559572840653,
BS000741,โรงแรมรอยัลปริ๊นซ์โฮเต็ล,,13.7498147721378,100.556680718417,
BS000740,แยกนิคมมักกะสัน,,13.7500372479011,100.555139303553,
BS000739,นิคมมักกะสัน,,13.7500338834165,100.553061845225,
BS000738,ตรงข้ามวัดมักกะสัน,,13.7499584731167,100.551419971236,
BS000737,ห้างเมโทร,,13.7496687080567,100.547073578926,
BS000736,ประตูน้ำคอมเพล็ก,,13.7496025606971,100.544139308629,
BS000735,ห้างพันธ์ทิพย์พลาซ่า,,13.7513378206505,100.537308012649,
BS000734,โรงเรียนกรุงเทพการบัญชี,,13.752109350548,100.535188985797,
BS000733,กิ่งเพชร,,13.753560719988,100.53106585546,
BS000732,ม.ราชภัฏวไลยอลงกรณ์ฯ ศูนย์กรุงเทพฯ,,13.75467275,100.52792376,
BS000731,อุรุพงษ์,,13.755970622943,100.524483336614,
BS000730,เจริญผล,,13.7475106333385,100.522790585658,
BS000729,เจริญผล,,13.747269982327,100.524306417472,
BS000728,สนามกีฬาศุภชลาศัย,,13.7464121815473,100.528899503664,
BS000727,ห้างมาบุญครอง,,13.7469521005436,100.530933371152,
BS000726,โรงแรมเอเชีย,,13.74899131475086,100.5312441991908,
BS000725,สำนักงานเขตราชเทวี,,13.7502184686644,100.531426738829,
BS000724,BTS. ราชเทวี,,13.7518950772318,100.531706063464,
BS000723,แยกราชเทวี,,13.7525390920981,100.531793879487,
BS000722,โรงเรียนกรุงเทพการบัญชี,,13.751933917592,100.535116291376,
BS000721,ห้างพันธ์ทิพย์พลาซ่า,,13.7508258401078,100.538194449098,
BS000720,ประตูน้ำคอมเพล็ก,,13.7497103295089,100.54187689037,
BS000719,เพชรรามา,,13.74942378435027,100.5442398501028,
BS000718,ห้างเมโทร,,13.74944975289774,100.5469992189734,
BS000717,วัดมักกะสัน,,13.7497522445616,100.551594338319,
BS000716,นิคมมักกะสัน,,13.7498493932699,100.553054801743,
BS000715,แยกนิคมมักกะสัน,,13.749838373922,100.555051986013,
BS000714,โรงแรมรอยัลปริ๊นซ์โฮเต็ล,,13.7496389197313,100.55664214214,
BS000713,โรงเรียนเซนต์ดอมินิก,,13.7493068519795,100.559564375246,
BS000712,มหาวิทยาลัย มศว. ประสานมิตร,,13.7485302972512,100.566218549926,
BS000711,ตรงข้ามสุกี้เรือนเพชร,,13.7478951671872,100.570390805789,
BS000710,วัดใหม่ช่องลม,,13.7468813789771,100.574917238975,
BS000709,สหพัฒนพิบูลย์,,13.7459677926138,100.578965598428,
BS000708,โรงพยาบาลกรุงเทพ,,13.7451097822095,100.582741489163,
BS000707,ศูนย์วิจัย,,13.7446322019142,100.584876636813,
BS000706,ธนาคารนครหลวงไทย สาขาเพชรบุรีตัดใหม่,,13.7441267,100.58735903,
BS000705,แยกทองหล่อเหนือ,,13.743388,100.59019,
BS000704,เมรี อาบอบนวด,,13.742965417644,100.592161731948,
BS000703,โรงพยาบาลเพชรเวช,,13.742504328528,100.594152264017,
BS000702,ตลาดคลองตัน,,13.7412944410681,100.599525734685,
BS000701,อิสานตะวันแดง,,13.73895249856976,100.6050923558442,
BS000700,ธนาคารกสิกรไทยพัฒนาการ,,13.73759643419423,100.6089023013806,
BS000699,ศูนย์อีซูซุพัฒนาการ,,13.73626,100.61274,
BS000698,ท่ารถสาย 92 พัฒนาการ,,13.73632444066379,100.6162932250252,
BS000697,หมู่บ้านแหลมทอง,,13.736542,100.619132,
BS000696,โรงเรียนอนุบาลสายทิพย์,,13.73661030480458,100.62056098428,
BS000695,ซอยนาคนาวา (พัฒนาการ 34),,13.73677443844628,100.623212907645,
BS000694,มหาวิทยาลัยเกษมบัณฑิต,,13.73701979475151,100.6266198947428,
BS000693,อุโมงค์ลอดถนนพัฒนาการ,,13.73674840330008,100.6305482225063,
BS000692,หมู่บ้านปรีชา 3,,13.73652314670033,100.6323504460899,
BS000691,หมู่บ้านเคหะนคร 3,,13.73616986974514,100.6354579737054,
BS000690,ศูนย์อนามัย 37,,13.73587254405848,100.6377193436081,
BS000689,แยกพัฒนาการ,,13.7351330242206,100.640910622319,
BS000688,อาคารจิตรวรนันท์,,13.7308117338633,100.641125280227,
BS000687,หมู่บ้านนราสิริ,,13.7285030359709,100.6414255564,
BS000686,ซอยอนามัย,,13.7209006512073,100.641971818914,
BS000685,แยกสวนหลวง,,13.7136498887645,100.64337567258,
BS000684,แยกผาสุก,,13.7173558156789,100.660582317338,
BS000683,บริษัท SCS,,13.718357969969,100.666826005776,
BS000682,สุเหร่าทางควาย,,13.7190224985075,100.671175501481,
BS000681,ครงข้ามซอยอ่อนนุช 59,,13.7194582068106,100.674444763873,
BS000680,หมู่บ้านชมเดือน อ่อนนุช 59/1,,13.7199649171263,100.67740572186,
BS000679,อ่อนนุช ซอย 63,,13.7202910623061,100.680624617526,
BS000678,อ่อนนุช ซอย 84,,13.7205529128165,100.684827854815,
BS000677,วัดกระ ตรงข้ามทุ่มเสือปลาอ่อนนุช ซอย 67,,13.7207829731989,100.690064774525,
BS000676,อ่อนนุช ซอย 88,,13.720991680478,100.694197807772,
BS000810,ตรงข้ามซอยจรัญสนิทวงศ์ 96/2,,13.80715584779483,100.5115945295586,
BS000809,สถานีตำรวจดับเพลิงบางอ้อ,,13.80261669562813,100.5115771468774,
BS000808,โรงพยาบาลยันฮี,,13.80060490517012,100.5109458565853,
BS000807,จรัญสนิทวงศ์ 89/1,,13.79685929463074,100.5080784047688,
BS000805,ธนาคารกสิกรไทย บางอ้อ,,13.7929312216801,100.5051773945051,
BS000804,จรัสนิทวงศ์ 77/3,,13.79046600445719,100.5032602633619,
BS000803,โรงเรียนบูรณวิทย์,,13.78855418468293,100.5006295753624,
BS000802,จรัสนิทวงศ์ 73,,13.78708274178823,100.4982959933911,
BS000801,โรงเรียนไทยอาชีวะศึกษา,,13.78605869788047,100.4966263899945,
BS000800,ตลาดกรุงธน,,13.784203865673,100.494990242599,
BS000799,ช.เจริญ โภชนา,,13.78359767,100.49635807,
BS000798,ศูนย์ภาษา ซีพี,,13.78257649,100.49874911,
BS000797,สะพานกรุงธน,,13.7791231729017,100.506554339084,
BS000789,โรงเรียนอนุบาลยุววิทย์,,13.77689304924888,100.5077928602446,
BS000816,โรงเรียนเซนต์คาเบรียล,,13.775785082731,100.507102548542,
BS000815,มหาวิทยาลัยราชภัฏสวนสุนันทา,,13.7743420325377,100.506451300311,
BS000814,หอสมุดแห่งชาติ,,13.773014494058,100.505803660233,
BS000813,เทเวศร์,,13.7716299017607,100.505133799806,
BS000812,เทเวศร์,,13.7704845020013,100.50436750377,
BS000794,คุรุสภา,,13.7673593292229,100.507038818087,
BS000811,มหาวิทยาลัยราชภัฏสวนดุสิต,,13.7770962502949,100.511460799603,
BS000796,รพ.วชิระ,,13.7785287237404,100.507923640786,
BS000806,พิบูลย์สินมาร์เกตติ้ง,,13.79449535095348,100.5063373519823,
BS000795,มหาวิทยาลัยราชภัฏสวนดุสิต,,13.7770410669996,100.511242087808,
BS000793,เทเวศร์,,13.7703506594637,100.504455903608,
BS000792,หอสมุดแห่งชาติ,,13.7729605989772,100.505934492657,
BS000791,มหาวิทยาลัยราชภัฏสวนสุนันทา,,13.774188280238,100.506574513175,
BS000790,โรงเรียนเซนต์คาเบรียล,,13.7756132527005,100.507237147915,
BS000788,รพ.วชิระ,,13.7786224997447,100.507942447828,
BS000787,สะพานกรุงธน,,13.7792419731952,100.506594574059,
BS000786,ตรงข้ามศูนย์ภาษา ซีพี,,13.78331155429638,100.4978041111354,
BS000785,ตลาดกรุงธน,,13.7845097821624,100.495118140029,
BS000784,เทสโก้ โลตัส จรัญสนิทวงศ์,,13.78848481905725,100.5010275750681,
BS000783,จรัสนิทวงศ์ 74/1,,13.79290542126781,100.5054066104959,
BS000782,จรัสนิทวงศ์ 82,,13.79490536066732,100.506966836024,
BS000781,สถานรับเลี้ยงเด็กบางอ้อ,,13.79658436442203,100.5081529871742,
BS000780,โรงพยาบาลยันฮี,,13.80065765062814,100.5111567020005,
BS000779,โรงเรียนพระรามหกเทคโนโลยี,,13.80378031477068,100.5121249358837,
BS000778,จรัญสนิทวงศ์ 96/2,,13.80709179092434,100.5117752172723,
BS000870,เจริญนคร ซอย 57/1,,13.70442833891,100.489389465127,
BS000912,บุคคโล,,13.7040344185982,100.487105737933,
BS000911,วัดมงคลวราราม,,13.694026,100.480665,
BS000910,วัดมะเกลือ,,13.69469512691725,100.479302452284,
BS000909,จอมทอง ซอย 4,,13.6956274286589,100.477293920759,
BS000908,โรงเรียนเลิศพัฒนาพานิชย์,,13.6959533062807,100.47659718372,
BS000907,เทียมทรัพย์ออมการ 3/2,,13.6963967464834,100.475595147438,
BS000906,ซอยเลิศเหนือ-เลิศใต้,,13.6973742791856,100.4735409718,
BS000905,ซอยจอมทอง 10,,13.69812194,100.47187324,
BS000904,ตลาดใหม่จอมทอง จอมทอง 15,,13.698660495203,100.470728908551,
BS000903,ถนนวุฒากาศ,,13.69912428140953,100.4680055698854,
BS000902,แยกวุฒากาศ,,13.6994554850942,100.467477486894,
BS000901,ทางรถไฟวัดนางนอง,,13.7032870846419,100.467191636759,
BS000900,วัดหนัง,,13.7041867111309,100.467615043425,
BS000899,อนามัย 29 พุธเนตร,,13.7061137753995,100.46841472456,
BS000898,ซอยอาทิตย์,,13.7097306288684,100.470010692888,
BS000897,สะพานวุฒากาศ 1,,13.7113395112007,100.470724705144,
BS000896,ชุมชนสันติสุข,,13.71334723555789,100.4714921418425,
BS000895,ซอย 5 เจดีย์,,13.71652,100.47224,
BS000894,ตลาดร่วมใจ,,13.71755778959631,100.4723475144124,
BS000893,แยกมะลิทอง,,13.71804267030768,100.4724112319835,
BS000892,โรงพยาบาลเยาวรักษ์,,13.71870011765264,100.4725148406744,
BS000891,ตรงข้ามโรงเรียนพรประสาทวิทยา,,13.7197235,100.47339424,
BS000890,ตลาดวัดกลาง,,13.7203626721994,100.475511431834,
BS000889,ตรงข้ามซอยเทอดไท 10,,13.72188889,100.48092055,
BS000888,วัดอินทราราม,,13.7220925140574,100.481611291548,
BS000887,ซอยเทอดไท 19,,13.72257304,100.48335673,
BS000886,วัดเวฬุราชิน,,13.7237571144158,100.484860740541,
BS000885,ครัวเขียวหวาน 26,,13.72437951,100.48550915,
BS000884,ซอยอินทรพิทักษ์ 5,,13.72669723,100.48986013,
BS000883,เดอะรีเวอร์ คอนโดมิเนียม,,13.72028549410931,100.5087040587128,
BS000882,คลองต้นไทร,,13.71929,100.50834,
BS000881,ซอยเจริญนคร 20,,13.71759376300274,100.5075378517595,
BS000880,เจริญนคร 22-23,,13.7160936233139,100.506294752169,
BS000879,ตรงข้ามวัดเศวตฉัตร,,13.71419753,100.50422247,
BS000878,ซอยเจริญนครซอย 32,,13.71254913891363,100.5021117651165,
BS000877,ธนาคารกรุงไทย สาขาถนนเจริญนคร,,13.71186088044466,100.5004380097191,
BS000876,เจริญนคร ซอย 38,,13.71110203271502,100.4985773945544,
BS000875,ตลาดเจริญนคร,,13.7098602363963,100.496394131276,
BS000874,ไทเสรี,,13.7089082564037,100.494817858117,
BS000873,เจริญนคร ซอย 49 - 51,,13.7083379914091,100.493851654893,
BS000872,เจริญนคร 56,,13.70788661013475,100.4931905780165,
BS000871,ซอยโรงเรียนเกื้อกูล,,13.7063556088762,100.49085879807,
BS000869,ซอยโรงเรียนเกื้อกูล,,13.7062688779963,100.49100386306,
BS000868,ตรงข้ามเจริญนคร 56,,13.70778596366871,100.4931899522468,
BS000867,เจริญนคร ซอย 49 - 51,,13.7081768638757,100.493913432383,
BS000866,ไทเสรี,,13.7087706768232,100.494922209143,
BS000865,ตลาดเจริญนคร,,13.7098087017223,100.496703127847,
BS000864,เจริญนคร ซอย 51,,13.71100241999065,100.498811234893,
BS000863,ซอยเจริญนครซอย 39,,13.71209634,100.50152818,
BS000862,วัดเศวตฉัตร,,13.7143759656834,100.5046613112384,
BS000861,เจริญนคร 22-23,,13.7159254509357,100.506432341737,
BS000860,ซอยเจริญนคร 17,,13.71763423,100.50766778,
BS000859,คลองต้นไทร,,13.7192279835564,100.508506491377,
BS000858,สำเหร่,,13.7210447858508,100.508876557777,
BS000857,วัดสุวรรณ,,13.723902915639,100.509159326072,
BS000856,วัดสุวรรณ,,13.7247127830126,100.50919521391,
BS000855,สหกรณ์กรุงเทพ,,13.7263859398766,100.509067916334,
BS000854,คลองสาน,,13.7279062795077,100.508964570089,
BS000853,ท่าน้ำคลองสาน,,13.7295738950424,100.508897658578,
BS000852,ลาดหญ้า ซอย 17,,13.7293975822453,100.505519738595,
BS000851,ธนบุรีคาเฟ่,,13.7280087174558,100.499848578229,
BS000850,ลาดหญ้า ซอย 14,,13.7277885814566,100.4986492147,
BS000849,ลาดหญ้า,,13.7272856140381,100.496914044663,
BS000848,ห้างโรบินสันลาดหญ้า,,13.7266850691673,100.494209825548,
BS000847,ซอยวัดใหญ่ศรีสุพรรณ 2,,13.726939,100.48952376,
BS000846,วัดเวฬุราชิณ,,13.72518821820723,100.4861706983367,
BS000845,วัดเวฬุราชิน,,13.7238079607065,100.484809655454,
BS000844,วัดอินทราราม 4,,13.72287435,100.48370975,
BS000843,วัดอินทราราม,,13.7222205383442,100.481632994471,
BS000842,วัดราชคฤห์,,13.72175843924627,100.4799743906066,
BS000841,ตลาดวัดกลาง,,13.7204554258983,100.4755240008,
BS000840,ซอยเทอดไท 26,,13.72018948,100.47469234,
BS000839,โรงพยาบาลเยาวรักษ์,,13.71873236548283,100.472423256292,
BS000838,แยกมะลิทอง,,13.71807331961796,100.4723095145761,
BS000837,ตลาดร่วมใจ,,13.71761290303441,100.4722341852289,
BS000836,ซอย 5 เจดีย์,,13.71661965618571,100.4721216851455,
BS000835,ชุมชนสันติสุข,,13.71346932425552,100.4714198474063,
BS000834,สะพานวุฒากาศ 1,,13.7113838871118,100.470603120868,
BS000833,ซอยอาทิตย์,,13.7097827467884,100.46990709876,
BS000832,อนามัย 29 พุธเนตร,,13.7061025255664,100.468295811982,
BS000831,วัดหนัง,,13.7041422765967,100.467454806765,
BS000830,ทางรถไฟวัดนางนอง,,13.7032475262437,100.467089995635,
BS000829,แยกวุฒากาศ,,13.699510553776,100.467399460891,
BS000828,ตรงข้ามถนนวุฒากาศ,,13.69902012295059,100.46818702266,
BS000827,ตลาดใหม่จอมทอง จอมทอง 15,,13.6985630672241,100.470710209983,
BS000826,ซอยจอมทอง 11/1,,13.6981075261743,100.4716661681592,
BS000825,ซอยเลิศเหนือ-เลิศใต้,,13.6973023704084,100.473445920066,
BS000824,เทียมทรัพย์ออมการ 3/2,,13.696313074912,100.47553698964,
BS000823,โรงเรียนเลิศพัฒนาพานิชย์,,13.69585009546,100.476594729404,
BS000822,จอมทอง ซอย 4,,13.6955348172818,100.47722530967,
BS000821,วัดมะเกลือ,,13.6946232098931,100.47921208685,
BS000820,วัดมงคลวราราม,,13.69391209792,100.480706405109,
BS000819,แยกบุคคโล,,13.704413,100.485962,
BS000818,บุคคโล,,13.7036224435217,100.487282217769,
BS000817,เจริญนคร ซอย 57/1,,13.7042007722168,100.489475333516,
BS000943,สี่แยกศาลาแดง,,13.7291422900625,100.535593077623,
BS000942,สถานีรถไฟฟ้าศาลาแดง,,13.7285864877073,100.534055069517,
BS000941,อาคารเจริญโภคภัณฑ์,,13.7282893648025,100.533262194773,
BS000940,โรงพยาบาลกรุงเทพคริสเตียน,,13.7278790603346,100.532129670178,
BS000939,ตรงข้ามไปรษณีย์สีลม,,13.72713186950817,100.5301480736415,
BS000938,วัดแขก,,13.7257173067231,100.526120901176,
BS000937,วัดแขก,,13.7245375401915,100.522747502984,
BS000936,แยกประมวล,,13.7241233347189,100.521641874066,
BS000935,ตรงข้ามเซ็นทรัลสีลม,,13.7235766546749,100.520084867419,
BS000934,รพ. เลิศสิน,,13.7226182874701,100.517342654304,
BS000933,ตลาดบางรัก,,13.7179578139364,100.517368043567,
BS000932,ซอยโรงน้ำแข็ง,,13.7182733526922,100.518494961429,
BS000931,สถารทูตออสเตรเลีย,,13.7234586510364,100.536239906925,
BS000930,รร.สุโขทัย,,13.7245186079967,100.539813189521,
BS000929,สาทรซอย 1,,13.7254932812028,100.543134299186,
BS000928,ศาลาแดง,,13.7254926290233,100.541867419808,
BS000927,ไทยธนาคาร,,13.7244441181486,100.53846483285,
BS000926,สถานทูตพม่า,,13.72091164275505,100.5264214921715,
BS000925,สถานีรถไฟฟ้าสุรศักดิ์,,13.71951461703491,100.5217804566492,
BS000924,ตลาดบางรัก,,13.718235961924,100.517370697663,
BS000923,รพ. เลิศสิน,,13.7223895691889,100.517426453959,
BS000922,ตรงข้ามเซ็นทรัลสีลม,,13.7234012587766,100.520169440216,
BS000921,แยกประมวล,,13.7239508604014,100.52161959144,
BS000920,วัดแขก,,13.7243661944855,100.522848855846,
BS000919,Paramont บริการท่องเที่ยว,,13.72506358,100.52474276,
BS000918,วัดแขก,,13.7255823988376,100.526143770919,
BS000917,ไปรษณีย์สีลม,,13.7270088807767,100.5303459220445,
BS000916,โรงพยาบาลกรุงเทพคริสเตียน,,13.7275772588812,100.531905592679,
BS000915,อาคารเจริญโภคภัณฑ์,,13.7281045055565,100.53333286987,
BS000914,สถานีรถไฟฟ้าศาลาแดง,,13.7284053864481,100.534291418016,
BS000913,สี่แยกศาลาแดง,,13.7289910179295,100.535759609896,
BS001029,โรงเรียนการัญศึกษา,,13.8359979997969,100.498939684442,
BS001028,แยกถนนเมืองนนทบุรี,,13.83810621111474,100.4976761830804,
BS001027,ตรงข้ามโรงเรียนธานินทร์,,13.83934868763934,100.497018333457,
BS001026,ตลาดนนท์,,13.8414790732726,100.496138245192,
BS001025,ซอยพิบูลสงคราม 32,,13.84211820307648,100.4959431031142,
BS001024,ซอยประชาราษฎ์ 11,,13.84348189043551,100.4969165957306,
BS001023,โรงเรียนดนตรีนนท์,,13.84371214665343,100.4985015771981,
BS001022,โรงเรียนสาธิตคริสเตียนวิทยา,,13.84385324336159,100.5018311137213,
BS001021,ซอยประชาราษฎร์ 3,,13.84379815,100.50514985,
BS001020,โรงเรียนวัดลานนาบุญ,,13.84369078,100.50935566,
BS001019,ตรงข้ามห้าง Big C นนทบุรี,,13.84424139,100.51197328,
BS001018,กระทรวงสาธารณสุข,,13.84769280983897,100.5143075503313,
BS001017,ซอยติวานนท์ 8,,13.85030634,100.51615488,
BS001016,ตรงข้ามโรงเรียนติวานนท์ศึกษา,,13.85338278,100.5182713,
BS001015,ซอยปิ่นประภาคม 1,,13.85694583,100.52059321,
BS001014,เอส.เอช.เค.กรุ๊ป,,13.84043750833084,100.5815176843582,
BS001013,ตรงข้ามร้านก๋วยเตี๋ยวเย็นตาโฟ ฟ้าผ่า,,13.84078932044025,100.5871926470521,
BS001012,ร้านก๋วยเตี๋ยวเย็นตาโฟ ฟ้าผ่า,,13.84100285625246,100.5863637296099,
BS001011,ตรงข้าม เอส.เอช.เค.กรุ๊ป,,13.84073730105642,100.5810469211962,
BS001010,ห้างโลตัสพหลโยธิน,,13.8777619271497,100.59812293121,
BS001009,กรมทหารสื่อสารกองทัพบก,,13.8793898977869,100.599112589226,
BS001008,หมู่บ้านฝนทอง,,13.8834273124067,100.601469325874,
BS001007,ธนาคารไทยพาณิชย์,,13.88504580575292,100.6024921619569,
BS001006,ซอยสายหยุด,,13.8865513622935,100.603335025347,
BS001005,โรงพยาบาลเซ็นทรัล,,13.8887674597041,100.604593747343,
BS001004,ธนาคารกรุงเทพสะพานใหม่,,13.8915667649455,100.606268596027,
BS001003,ซอยโชคดี 2,,13.89294416550343,100.6070749868498,
BS001002,บิ๊กซีสะพานใหม่,,13.8949597868911,100.608275891798,
BS001001,สะพานใหม่,,13.8968953016368,100.609436973739,
BS001000,แยกวัดเกาะ,,13.9021271827935,100.612494030951,
BS000999,ตรงข้ามโรงเรียนเสนาธิการทหารอากาศ,,13.90580803,100.61463213,
BS000998,โรงพยาบาลภูมิพลอดุลยเดช,,13.9093659436538,100.616816381179,
BS000997,สโมสรทหารอากาศ,,13.913163549376,100.619028995801,
BS000996,โรงเรียนฤทธิยะ,,13.9159242693247,100.620660080139,
BS000995,หอประชุมกานตรัตน์,,13.9181996000929,100.622002388216,
BS000994,โรงเรียนนายเรือ,,13.9210234242073,100.6236611502383,
BS000993,แยก คปอ.,,13.92303879771,100.6248114741013,
BS000992,ตลาดคลองถม,,13.9269784372471,100.6267363893636,
BS000991,พหลโยธิน 54/4,,13.93071389,100.62602871,
BS000990,ซอยแอนเน็กซ์,,13.9362450482058,100.625088186057,
BS000989,ซอย 39,,13.9403651640372,100.624381673881,
BS000988,ซอยพหลโยธิน 62/2 แยก 2-1,,13.94503704,100.6233903,
BS000987,แยกลำลูกกา,,13.9494948306786,100.622536673325,
BS000986,ตรงข้ามสบายเซ็นเตอร์,,13.94909452539083,100.6223587745342,
BS000985,ตรงข้ามแยกพหลโยธิน 62/2,,13.94547852,100.62316812,
BS000984,ซอย39,,13.9401973139568,100.624028613602,
BS000983,ซอยแอนเนกซ์,,13.9361525327047,100.624716640595,
BS000982,ตรงข้ามพหลโยธิน 54/1,,13.93043501160836,100.6257598592944,
BS000981,แยก คปอ.,,13.92550299128058,100.6259217321735,
BS000980,โรงเรียนนายเรืออากาศ,,13.92276519362751,100.6243951252503,
BS000979,ตรงข้ามกองบัญชาการกองทัพอากาศไทย,,13.92018858705267,100.6228211982116,
BS000978,หอประชุมกานตรัตน์,,13.9181792984383,100.6216850229,
BS000977,โรงเรียนฤทธิยะ,,13.9160686055303,100.620435994538,
BS000976,สโมสรทหารอากาศ,,13.913252231948,100.618800679643,
BS000975,โรงพยาบาลภูมิพลอดุลยเดช,,13.9092835920337,100.616407223577,
BS000974,โรงเรียนเสนาธิการทหารอากาศ,,13.90634062008368,100.614683661904,
BS000973,แยกวัดเกาะ,,13.9022124608765,100.612251617938,
BS000972,ตลาดยิ่งเจริญ,,13.8969870403934,100.609158018094,
BS000971,บิ๊กซีสะพานใหม่,,13.89501327141857,100.6079653607491,
BS000970,ตรงข้ามซอยโชคดี 1,,13.89319342175687,100.6069510601957,
BS000969,ธนาคารกรุงเทพสะพานใหม่,,13.8913741379615,100.605850119677,
BS000968,โรงพยาบาลเซ็นทรัล,,13.8888404738925,100.604361268439,
BS000967,ซอยสายหยุด,,13.8865455620919,100.603020183831,
BS000966,พหลโยธิน 65,,13.88523383598415,100.6022971516996,
BS000965,หมู่บ้านฝนทอง,,13.8834169319691,100.601180805837,
BS000964,กรมทหารสื่อสารกองทัพบก,,13.879394669384,100.598796740702,
BS000963,ห้างโลตัสพหลโยธิน,,13.8779972236536,100.597963101862,
BS000962,ตรงข้ามซอยปิ่นประภาคม 1,,13.85711492,100.52044446,
BS000961,โรงเรียนติวานนท์ศึกษา,,13.85330712,100.51788506,
BS000960,ตรงข้ามซอยติวานนท์ 6,,13.84951116,100.51528798,
BS000959,ตรงข้ามกระทรวงสาธารณสุข,,13.84752496,100.51385764,
BS000958,ห้าง Big C นนทบุรี,,13.84406208,100.51146512,
BS000957,ตรงข้ามโรงเรียนวัดลานนาบุญ,,13.84377395,100.5094046,
BS000956,โรงเรียนนนทบุรีคริสเตียนวิทยา,,13.84388766,100.5033244,
BS000955,ตรงข้ามโรงเรียนคริสเตียนวิทยา,,13.8440229328962,100.5016544335163,
BS000954,โรงเรียนเทศบาล 2,,13.84391223501245,100.4987753051621,
BS000953,ตรงข้ามซอยประชาราษฎ์ 13,,13.84356522630682,100.4968651650814,
BS000952,ตลาดนนท์,,13.84308276216468,100.4944307262346,
BS000951,ตลาดนนท์,,13.8428547125331,100.4935257428027,
BS000950,ท่าน้ำนนท์,,13.8427136393852,100.492814444743,
BS000949,ท่าน้ำนนท์,,13.8425930062685,100.492693977057,
BS000948,ตลาดนนท์,,13.84274550429369,100.4935358704595,
BS000947,ตลาดนนทบุรี (พิบูลย์ 3),,13.8429530223461,100.4945007963598,
BS000946,ตลาดนนท์,,13.8405576645548,100.496217637932,
BS000945,โรงเรียนธานินทร์,,13.83933460659072,100.4968010903162,
BS000944,โรงเรียนการัญศึกษา,,13.8359408413086,100.498692624692,
BS001147,ตรงข้าม สน.ลาดพร้าว,,13.7674060829067,100.647870920678,
BS001146,หมวดการทางบางกะปิ,,13.76918048913,100.647567551138,
BS001145,ตรงข้ามโรงเรียนบ้านบางกะปิ,,13.7719724815186,100.64731445143,
BS001144,การเคหะแห่งชาติ,,13.77418243506177,100.6459919497862,
BS001143,โรงเรียนบ้านบางกะปิ,,13.7753552498289,100.645312086969,
BS001142,ท่ารถสาย 520 แฮปปี้แลนด์,,13.7762790258258,100.645074692786,
BS001141,สนามกีฬาคลองจั่น,,13.7782204266539,100.64456309432,
BS001140,แฮปปี้แลนด์,,13.7808814607331,100.645547052541,
BS001139,การเคหะคลองจั่น,,13.7816591873261,100.646066552723,
BS001138,หมู่บ้านวังทอง,,13.7835443540176,100.64731196532,
BS001137,หมู่บ้านศรีนคร 1,,13.7860205940382,100.649042715997,
BS001136,หมู่บ้านปรีชา 2,,13.7877799048066,100.650180513618,
BS001135,โรงเรียนโสมาภา,,13.7896331374966,100.651461226276,
BS001134,หมู่บ้านปรีชา 2,,13.7909188733723,100.652322630505,
BS001133,ตรงข้ามตลาดอินทรารักษ์,,13.7943920031092,100.651770659334,
BS001132,ตลาดอินทรารักษ์,,13.796781674389,100.650700583795,
BS001131,สันติอโศก,,13.7981030484407,100.650118756962,
BS001130,หมู่บ้านสินธานี,,13.8000355869303,100.649224480141,
BS001129,วัดบางเตย,,13.802459055464,100.648121307398,
BS001128,หมู่บ้านสามัคคี,,13.8055424314468,100.648179493072,
BS001127,หมู่บ้านสามัคคี,,13.8068281094908,100.648896734956,
BS001126,หมู่บ้านธนะสิน,,13.8088169351388,100.649790281472,
BS001125,ซอยนวลจันทร์,,13.8102081427848,100.650410258602,
BS001124,หมู่บ้านปัฐวิกรณ์,,13.8121607164007,100.65123846788,
BS001123,หมู่บ้านนพรัตน์,,13.8140671452362,100.652058907774,
BS001122,โรงเรียนเบญจมินทร์,,13.81623529188427,100.6529917151339,
BS001121,หมู่บ้านศรีพัฒนา 2,,13.81749453519495,100.6534971843135,
BS001120,ห้างจัสโก้นวมินทร์,,13.81852053332456,100.6539397076127,
BS001119,หมู่บ้านศรีนคร 2,,13.82007952751866,100.654648282076,
BS001118,โรงพยาบาลศรีสยาม,,13.8215617916058,100.6552996982729,
BS001117,หมู่บ้านอัมรินทร์ 2,,13.82390872846382,100.656247118954,
BS001116,ซอยสิงหเสนีย์,,13.82612466948897,100.6572611152544,
BS001115,สำนักงานไปรษณีย์จรเข้บัว,,13.82790121891157,100.657994329932,
BS001114,สหฟาร์ม,,13.83003693679935,100.6588722543614,
BS001113,สหฟาร์ม,,13.83239600366815,100.6599010005376,
BS001112,ซอยอมรวิวัฒน์,,13.83366180822972,100.6604000348454,
BS001111,วัดศรีบุญพิกรม,,13.83516347530151,100.6611090968205,
BS001110,ซอยอมรวิวัฒน์,,13.83649167659484,100.6616755982916,
BS001109,โรงเรียนไทยวิจิตรศิลป์,,13.83576065728451,100.6652531807174,
BS001108,โรงพยาบาลสินแพทย์,,13.83400096051564,100.6671122679667,
BS001107,ซอยชื่นกมล,,13.83219893748426,100.6689726408554,
BS001106,ห้างแฟชั่นไอส์แลนด์,,13.82489965917627,100.6764819258184,
BS001105,ธนาคารไทยพาณิชย์รามอินทรา,,13.82169067052047,100.679970727393,
BS001104,หมู่บ้านรุ่งอรุณ,,13.81914814427631,100.6826218115562,
BS001103,โรงพยาบาลนพรัตน์,,13.81531299882108,100.6867727622081,
BS001102,เทคโนไทยสุริยะ,,13.81254953707624,100.6910554094811,
BS001101,หมู่บ้านรังสิยา,,13.81255206391105,100.6942916158833,
BS001100,ซอยวัดบางชัน,,13.81254683366331,100.6990574024173,
BS001099,เกาะข่า,,13.81250134466222,100.7055069961034,
BS001098,ร้านอาหารแพน้ำ,,13.81246895832466,100.7112187663852,
BS001097,โรงเรียนเศรษฐบุตรบำเพ็ญ,,13.8124884104052,100.713985591843,
BS001096,แยกมีนบุรี,,13.812460476473,100.72008315908,
BS001095,โรงแรมชนา,,13.812491,100.723428,
BS001094,สวนจตุจักร 2,,13.8123707626174,100.725880142925,
BS001093,ธนาคารกรุงเทพ สาขามีนบุรี,,13.8123619,100.7282511,
BS001092,มีนบุรี,,13.8130488245766,100.73133896137,
BS001091,สถานีตำรวจมีนบุรี,,13.8147984441391,100.734331774456,
BS001090,กรมที่ดินมีนบุรี,,13.8141735787419,100.733303059075,
BS001089,แยกถนนนิมิตรใหม่,,13.820009,100.7413432,
BS001088,อู่มีนบุรี,,13.8194856,100.7353836,
BS001087,สถานีตำรวจมีนบุรี,,13.815076686239,100.7342432611075,
BS001086,กรมที่ดินมีนบุรี,,13.81445656084638,100.7331981463167,
BS001085,มีนบุรี,,13.8133027549567,100.731124682314,
BS001084,ตรงข้ามธนาคารกรุงเทพ สาขามีนบุรี,,13.8125797163487,100.7285501054714,
BS001083,สวนจตุจักร2,,13.81268610280956,100.7258606731827,
BS001082,แยกมีนบุรี,,13.8127746659253,100.718925621671,
BS001081,โรงเรียนเศรษฐบุตรบำเพ็ญ,,13.8127845209431,100.714023515679,
BS001080,ร้านอาหารแพน้ำ,,13.81282264744699,100.7111213781689,
BS001079,เกาะข่า,,13.81278936845088,100.7054917312635,
BS001078,ซอยวัดบางชัน,,13.81281382606001,100.699111252403,
BS001077,หมู่บ้านรังสิยา,,13.81282144334113,100.6942620505842,
BS001076,เทคโนไทยสุริยะ,,13.81282421408164,100.6910673292843,
BS001075,โรงพยาบาลนพรัตน์,,13.81568224833328,100.6868309654268,
BS001074,หมู่บ้านรุ่งอรุณ,,13.81943608303152,100.6828028013454,
BS001073,ธนาคารกรุงไทยรามอินทรา,,13.821935012929,100.6802546646306,
BS001072,ห้างแฟชั่นไอส์แลนด์,,13.82415064799465,100.6779967576541,
BS001071,อำนวยเภสัช,,13.83059671140186,100.671227564488,
BS001070,ซอยชื่นกมล,,13.83234385598443,100.66930914252,
BS001069,โรงพยาบาลสินแพทย์,,13.83415172387924,100.6674061703369,
BS001068,โรงเรียนไทยวิจิตรศิลป์,,13.83580718278752,100.6657951200896,
BS001067,ซอยอมรวิวัฒน์,,13.83659150534906,100.6613991239748,
BS001066,วัดศรีบุญพิกรม,,13.83532656539735,100.6609027958264,
BS001065,ซอยอมรวิวัฒน์,,13.83396056202145,100.6603187799361,
BS001064,สหฟาร์ม,,13.83256695834363,100.6597099271242,
BS001063,สหฟาร์ม,,13.83023643887556,100.6586588234813,
BS001062,สำนักงานไปรษณีย์จรเข้บัว,,13.8281924529937,100.6578042868353,
BS001061,ซอยสิงหเสนีย์,,13.82621755109231,100.6569821168441,
BS001060,หมู่บ้านอัมรินทร์ 2,,13.82400863814776,100.6560338153897,
BS001059,โรงพยาบาลศรีสยาม,,13.82172579008015,100.6550207949121,
BS001058,หมู่บ้านศรีนคร 2,,13.82025131952001,100.6543686500379,
BS001057,ห้างจัสโก้นวมินทร์,,13.81867014821294,100.6537562584802,
BS001056,หมู่บ้านศรีพัฒนา 2,,13.81766489135896,100.6532412259025,
BS001055,โรงเรียนเบญจมินทร์,,13.81627088015923,100.6526470998049,
BS001054,หมู่บ้านนพรัตน์,,13.8141261458729,100.651789410456,
BS001053,หมู่บ้านปัฐวิกรณ์,,13.8123203119067,100.651006640538,
BS001052,ซอยนวลจันทร์,,13.8104580576245,100.650237028347,
BS001051,หมู่บ้านธนะสิน,,13.8089578698792,100.649595040014,
BS001050,หมู่บ้านสามัคคี,,13.8070419849646,100.648723426071,
BS001049,หมู่บ้านสามัคคี,,13.8056972696667,100.647976227023,
BS001048,วัดบางเตย,,13.802471299305,100.647880374667,
BS001047,หมู่บ้านสินธนา,,13.8000108260351,100.648955958046,
BS001046,สันติอโศก,,13.7981556544147,100.649804729677,
BS001045,ตลาดอินทรารักษ์,,13.7967059385194,100.650504990543,
BS001044,ตลาดอินทรารักษ์,,13.7946116508028,100.651413388599,
BS001043,ซอยปรีชา(นวมินทร์ 69),,13.7925716185272,100.652319453453,
BS001042,โรงเรียนโสมาภา,,13.789754868476,100.651225068463,
BS001041,หมู่บ้านปรีชา 2,,13.7878530607599,100.649920824606,
BS001040,หมู่บ้านศรีนคร 1,,13.7861329064493,100.648775396766,
BS001039,หมู่บ้านวังทอง,,13.7836595966411,100.647136321523,
BS001038,แฮปปี้แลนด์,,13.781021977704,100.645308363528,
BS001037,สนามกีฬาคลองจั่น,,13.7781966412429,100.644356150914,
BS001036,ท่ารถสาย 520 แฮปปี้แลนด์,,13.7761350994309,100.644875831868,
BS001035,โรงเรียนบ้านบางกะปิ,,13.7753335498933,100.645140930338,
BS001034,ตรงข้ามการเคหะแห่งชาติ,,13.774347991356,100.645670112327,
BS001033,โรงเรียนบ้านบางกะปิ,,13.7719172136196,100.647100141493,
BS001032,หมวดการทางบางกะปิ,,13.7690420719685,100.647381721959,
BS001031,สน.ลาดพร้าว,,13.7671874341336,100.647645725452,
BS001030,แยกพระราม 4,,13.7205543453092,100.55902099642,
BS001200,ตรงข้ามซอยสยามนิเวศร์ 2,,13.61778838885107,100.6508560440268,
BS001199,ตรงข้ามซอยที่ดินทอง 4,,13.62012632274431,100.6442518724198,
BS001198,ตรงข้ามบริษัทไทยามาโต้ ไอรอน,,13.62273214749515,100.6368035476084,
BS001197,ตรงข้ามโรงงาน seagate,,13.62334050556334,100.6351453081159,
BS001196,หมู่บ้านศิริกานต์,,13.62856504672199,100.625478721609,
BS001195,ซอยเทวา 3,,13.6320245154166,100.6189486012825,
BS001194,ตรงข้ามเทพารักษ์วิลล่า,,13.63354201619989,100.6162460219786,
BS001193,โรงเรียนโพธิ์เทพารักษ์,,13.63548584329347,100.6124269539692,
BS001192,ตรงข้ามโรงงานไทยฮีโน่,,13.63820111728604,100.6077454834466,
BS001191,โรงเรียนอนุบาลเทพารักษ์,,13.64195016282308,100.6033088601585,
BS001190,บางนา,,13.675200459628,100.607745338411,
BS001189,ซอยอุดมสุข,,13.6781348233915,100.608948002983,
BS001188,BTS อุดมสุข,,13.6798195164444,100.609610236444,
BS001187,ตลาดอุบลศรี,,13.6818532058921,100.61032440829,
BS001186,ซอยปิยะบุตร 2,,13.68585961,100.61043037,
BS001185,สุขุมวิท ซอย 64,,13.6881342750846,100.609730611471,
BS001184,BTS ปุณณวิถี,,13.6892508844456,100.609131698708,
BS001183,สุขุมวิท ซอย 101,,13.6907316116757,100.608515980292,
BS001182,ธนาคารกสิกรไทย,,13.69255767674926,100.6075988557457,
BS001181,อู่บางจาก,,13.6941677274005,100.606707408735,
BS001180,ตลาดบางจาก,,13.6975162415894,100.605166201606,
BS001179,ศูนย์การค้ามาร์เก็ตพลัส,,13.70346240500186,100.6021875228638,
BS001178,BTS. อ่อนนุช,,13.7053941342677,100.601305749408,
BS001177,สุขุมวิท 79,,13.70711799,100.60037039,
BS001176,ดับเพลิง,,13.7082170261505,100.599867144121,
BS001175,ตลาดพระโขนง,,13.712041903575,100.595883696467,
BS001174,ตลาดพระโขนง,,13.7124570912941,100.594847179748,
BS001173,ตลาดอ่อนนุช,,13.708309111724,100.599612199085,
BS001172,BTS. อ่อนนุช,,13.7053086060054,100.601074444555,
BS001171,โรงเรียนนารีนิรมล,,13.70335945,100.60203074,
BS001170,โรงเรียนนานาชาติ Well,,13.70164161891895,100.6028373363759,
BS001169,ตลาดบางจาก,,13.6978875043694,100.604685156402,
BS001168,อู่บางจาก,,13.6939212355384,100.606636613122,
BS001167,ไทยสีไลท์อินเทรด,,13.69248358,100.60738743,
BS001166,ตรงข้ามซอยปุณวิถี 1,,13.69116713,100.60798127,
BS001165,สุขุมวิท ซอย 101,,13.6898735083261,100.608648681256,
BS001164,สุขุมวิท ซอย 64,,13.6879706846817,100.609522596812,
BS001163,ซอยวัดทุ่งสาธิต,,13.6848595106315,100.610353478411,
BS001162,สวนสาธรณะ,,13.68285394779719,100.6103287624447,
BS001161,ตลาดอุบลศรี,,13.6820733719562,100.610145733896,
BS001160,ซอยอุดมสุข,,13.6795254372608,100.609200283413,
BS001159,สุขุมวิท ซอย 68,,13.6773789667651,100.608330324505,
BS001158,แยกบางนา,,13.6748179664584,100.607237557665,
BS001157,ซอยเทพารักษ์ 14,,13.64212593283708,100.6025442068364,
BS001156,หน้าโรงงานไทยฮีโน่,,13.63812239739866,100.607511240256,
BS001155,โรงพยาบาลจุฬารัตน์ 2,,13.6357944655441,100.6114293423212,
BS001154,เทพารักษ์วิลล่า,,13.6337559857291,100.6153223128481,
BS001153,ซอยร่วมจิตพัฒนา,,13.63056494778279,100.621230682886,
BS001152,หมู่บ้านทหารเรือ,,13.62587137347813,100.6298769577472,
BS001151,หน้าโรงงาน seagate,,13.62367762762401,100.6340732441996,
BS001150,หน้าบริษัทไทยามาโต้ ไอรอน,,13.62262860142764,100.6363624688514,
BS001149,ซอยชวาล 2,,13.62031034586937,100.6430664377217,
BS001148,หนามแดง,,13.61809300662278,100.6493653017529,
BS001305,วัดกำแพง,,13.8316670753495,100.500642441651,
BS001304,แฟรกส์ บาร์,,13.82870220554149,100.5018991114508,
BS001303,คอนโดวิกเตอร์ไร,,13.826464677065,100.502825101013,
BS001302,วัดเขมา,,13.8242557910437,100.503540012128,
BS001301,โรงเรียนสตรีนนทบุรี-วัดปากน้ำ,,13.822095304932,100.50560751436,
BS001300,หมู่บ้านพิบูลย์,,13.8204354242304,100.508594987677,
BS001299,บริบัท พูลผล จำกัด,,13.8197081195421,100.510107297145,
BS001298,ใต้สะพานพระราม 7,,13.8155581397345,100.515101239744,
BS001297,วัดสร้อยทอง,,13.8138555357837,100.518459568735,
BS001296,ตลาดศรีเขมา,,13.8140787118448,100.521019533215,
BS001295,วัดอนัมนิกายาราม(วัดญวณ),,13.8114848828381,100.521665389092,
BS001294,ประชาราษฎร์ สาย 1 ซอย 15,,13.80711277100975,100.5215401430928,
BS001293,แยกบางโพ,,13.8066196520865,100.521422135529,
BS001292,สถานีดับเพลิงบางโพ,,13.8029860980985,100.521271249042,
BS001291,วัดประดู่,,13.80124838899,100.521246905148,
BS001290,วัดใหม่ทองเสน,,13.7969024421348,100.522148776221,
BS001289,กรมสรรพาวุธทหารบก,,13.7963178299401,100.52370324486,
BS001288,กรมการขนส่งทางบก,,13.794844006669,100.526985665279,
BS001287,ทหารสื่อสาร,,13.793864,100.528979,
BS001286,ทหารปืนใหญ่ที่ 1,,13.79311115102,100.531478546834,
BS001285,สะพานแดง,,13.7925171565842,100.534439799113,
BS001284,ประดิพัทธ์ ซอย 1,,13.7921268368893,100.536346409169,
BS001283,แยกประดิพัทธ์,,13.7918788369941,100.537483429714,
BS001282,สำนักงานเลขาธิการ,,13.7913864173864,100.539949680744,
BS001281,โรงแรมมิโดโฮเต็ล,,13.7905108035315,100.544179287186,
BS001280,ประดิพัทธ์ ซอย 20,,13.7899866744008,100.546721218526,
BS001279,แยกสะพานควาย,,13.78961075782089,100.5490412786625,
BS001278,โรมแรมสุดา,,13.7889843406627,100.550733714057,
BS001277,อินทามะระ ซอย 4,,13.7888747977585,100.552852584891,
BS001276,อินทามะระ ซอย 7,,13.7889271506575,100.553713385001,
BS001275,อินทามะระ ซอย 10,,13.7890251605399,100.556484793756,
BS001274,ตลาดมิ่งขวัญ,,13.7891426185471,100.559340344219,
BS001273,แยกวิภาวดี,,13.7891986364648,100.560809309784,
BS001272,สถานีดับเพลิงสุทธิสาร,,13.7892816772718,100.5626983231,
BS001271,อินทามะระ ซอย 28 / 1,,13.7887506642099,100.566859310135,
BS001270,อินทามะระ ซอย 32,,13.786986104377,100.566976422658,
BS001269,ป้อมตำรวจสุทธิสาร,,13.7857068377311,100.567040758485,
BS001268,อินทามะระ ซอย 40,,13.7838493865944,100.567087606024,
BS001267,ตรงข้ามอินทามะระ ซอย 59,,13.7808046383475,100.567163670657,
BS001266,ประชาสงเคราะห์ ซอย 47,,13.7792166090579,100.566914547443,
BS001265,ประชาสงเคราะห์ ซอย 45,,13.7783886890064,100.567427495417,
BS001264,ศูนย์รับเลี้ยงเด็กห้วยขวาง,,13.776636382736,100.567862956515,
BS001263,คอนโด พี วี ซี,,13.7754611425951,100.565638026183,
BS001262,ซอยหมอแก้ว,,13.775636870265,100.563729013033,
BS001261,วัดหลวงพ่อเณร,,13.7751308286101,100.562105926761,
BS001260,ประชาสงเคราะห์ ซอย 25,,13.774488071529,100.561131767775,
BS001259,ซอยแม่เนี้ยว,,13.7739033658239,100.560316473558,
BS001258,โรงเรียนพร้อมพรรณวิทยา,,13.7717671436814,100.56010211028,
BS001257,แฟลต 7,,13.77182429022647,100.5556818427113,
BS001256,กทม. 2,,13.76875570370164,100.553968070104,
BS001255,กทม. 2,,13.76863441173112,100.5541751247371,
BS001254,โรงเรียนวิชูทิศ,,13.76908789305679,100.5562659864749,
BS001253,โรงบำบัดน้ำเสีย,,13.77052590178622,100.5576519488215,
BS001252,โรงเรียนพร้อมพรรณวิทยา,,13.7717186147633,100.560233829376,
BS001251,ซอยแม่เนี้ยว,,13.7737886248211,100.560369072348,
BS001250,ประชาสงเคราะห์ ซอย 25,,13.7744224270682,100.561205856612,
BS001249,ซอยหมอแก้ว,,13.7754891558139,100.563789902412,
BS001248,คอนโด พี วี ซี,,13.7753746028403,100.565598145164,
BS001247,หอนาฬิกาห้วยขวาง,,13.7751083139214,100.567518344981,
BS001246,ตลาดห้วยขวาง,,13.7774890931955,100.568103102282,
BS001245,ประชาสงเคราะห์ ซอย 47,,13.7792235540429,100.567019472322,
BS001244,อินทามะระ ซอย 59,,13.7808275975809,100.567292399235,
BS001243,อินทามะระ ซอย 55,,13.7821246871957,100.567242750424,
BS001242,อินทามะระ ซอย 51,,13.7838070800779,100.567206594415,
BS001241,ป้อมตำรวจสุทธิสาร,,13.7856405007209,100.567114732206,
BS001240,อินทามะระ ซอย 32,,13.7869888551906,100.567060289846,
BS001239,อินทามะระ ซอย 28 / 1,,13.78868,100.56694,
BS001238,อินทามะระ ซอย 39,,13.7895317843202,100.565954160783,
BS001237,แยกสุทธิสาร,,13.789416324255,100.562775551855,
BS001236,แยกวิภาวดี,,13.7892660876821,100.560734163989,
BS001235,ตลาดมิ่งขวัญ,,13.7892244094037,100.55929048253,
BS001234,อินทามะระ ซอย 10,,13.7890782362489,100.55630621533,
BS001233,อินทามะระ ซอย 7,,13.7890001441904,100.553600597943,
BS001232,ตรงข้ามโรงแรมสุดาพาเลซ,,13.7891066550317,100.550704370848,
BS001231,ป้ายรถประจำทางแยกสะพานควาย,,13.78969817696842,100.549197520849,
BS001230,ประดิพัทธ์ ซอย 21,,13.7901427882727,100.546641569935,
BS001229,โรงแรมกานต์มณี,,13.7906134379848,100.544140430486,
BS001228,ตรงช้ามสำนักงานเลขาธิการ,,13.7915056890296,100.539903027602,
BS001227,แยกประดิพัทธ์,,13.792000119128,100.537447520295,
BS001226,ประดิพัทธ์ ซอย 1,,13.7922387375312,100.536311389127,
BS001225,สะพานแดง,,13.7926316594732,100.534477851266,
BS001224,ทหารปืนใหญ่ที่ 1,,13.7932113888161,100.531360068483,
BS001223,ทหารสื่อสาร,,13.7939696408982,100.52896269309,
BS001222,กรมการขนส่งทางบก,,13.7948851829414,100.527088616543,
BS001221,กรมสรรพาวุธทหารบก,,13.7964368755216,100.523738868858,
BS001220,ปตอ.,,13.797063119548,100.522141337393,
BS001219,แยกเกียกกาย,,13.7977401891795,100.521417957794,
BS001218,วัดประดู่,,13.8010430469331,100.521377015344,
BS001217,สถานีดับเพลิงบางโพ,,13.8028735103805,100.521427312877,
BS001216,ซอยประชาราษฎร์ สาย 1 ซอย 16,,13.80431742,100.52149402,
BS001215,แยกบางโพ,,13.8061711712458,100.521606044126,
BS001214,ประชาราษฎร์ สาย 1 ซอย 20,,13.80790713565769,100.521686799669,
BS001213,ประชาราษฎร์ สาย 1 ซอย 26,,13.81043498401941,100.5217758526965,
BS001212,โรงเรียนกุลวรรณ,,13.8115107558248,100.521827468094,
BS001211,ตลาดศรีเขมา,,13.8146179658544,100.520258806431,
BS001210,วัดสร้อยทอง,,13.8140520784636,100.518543603912,
BS001209,ใต้สะพานพระราม 7,,13.8157278024416,100.515154023268,
BS001208,หมู่บ้านพิบูลย์,,13.8206654892669,100.508575522914,
BS001207,วัดเขมา,,13.8243631074033,100.503781033099,
BS001206,ซอยพิลสงคราม 14,,13.82575579484142,100.503305456668,
BS001205,คอนโดวิกเตอร์ไร,,13.8266340551693,100.503017112315,
BS001204,สวิตบาร์,,13.82883644980448,100.5021551481083,
BS001203,ปั๊มน้ำมัน ESSO,,13.8299961941958,100.501622386949,
BS001202,วัดกำแพง,,13.831683864292,100.500932018807,
BS001201,วัดนครอินทร์,,13.8338126957955,100.500112678964,
BS001346,สวนเจ้าเชตุ,,13.7456993923218,100.494525013883,
BS001345,เสาชิงช้า,,13.7523554344754,100.50101083096,
BS001344,วัดราชนัดดาราม,,13.7562645060014,100.502787775162,
BS001343,วัดมกุฎกษัตริยาราม,,13.766069,100.50648,
BS001342,โรงเรียนสุโขทัย,,13.77584360116472,100.5220816632289,
BS001341,บ้านราชวิถี,,13.7695737507999,100.527650392072,
BS001340,แยกตึกชัย,,13.7685400076286,100.530014956397,
BS001339,โรงพยาบาลพระมงกุฎ,,13.767337557922,100.532703762687,
BS001338,โรงพยาบาลเด็ก,,13.7658101173952,100.536031522207,
BS001337,อนุสาวรีย์ชัยสมรภูมิ,,13.76495013033729,100.5375213916814,
BS001336,ดุสิตพาณิชยการ,,13.7635298946568,100.541113832116,
BS001335,โรงแรมเทียร่า,,13.7633445927916,100.545781268942,
BS001334,ตรงข้ามโรงเรียนพิบูลประชาสรรค์,,13.7623821816973,100.5505040028316,
BS001333,โรงพยาบาลราชานุกูล,,13.7606696270898,100.554160193312,
BS001332,ป้อมตำรวจดินแดง,,13.7626358755477,100.555848646478,
BS001331,โรงเรียนวิชูทิศ,,13.7634902835629,100.556131501389,
BS001330,ประชาสงเคราะห์ ซอย 5,,13.764099236667,100.556419468236,
BS001329,ตลาดดินแดง,,13.7647659830061,100.556686224263,
BS001328,สถานีอนามัยดินแดง,,13.7686910674496,100.558178901589,
BS001327,วัดหลวงพ่อเณร,,13.7751673309667,100.562365542131,
BS001326,สาธารณสุข 42,,13.77743430329391,100.5705658345232,
BS001325,สถานีอนามัยดินแดง,,13.7688345241866,100.558048224822,
BS001324,ตลาดดินแดง,,13.7647774558388,100.556536878924,
BS001323,ประชาสงเคราะห์ ซอย 5,,13.764237983356,100.556322919199,
BS001322,โรงเรียนวิชูทิศ,,13.76348022097,100.556014197293,
BS001321,ป้อมตำรวจดินแดง,,13.7626239265494,100.555676960397,
BS001320,โรงพยาบาลราชานุกูล,,13.761018,100.553923,
BS001319,โรงเรียนพิบูลประชาสรรค์,,13.7625549857973,100.5508726474822,
BS001318,โรงแรมเทียร่า,,13.7636102833729,100.545601196754,
BS001317,ดุสิตพาณิชยการ,,13.7636892102296,100.541259160772,
BS001316,โรงพยาบาลเด็ก,,13.7654771608359,100.537257058035,
BS001315,โรงพยาบาลเด็ก,,13.7658912480437,100.536206033609,
BS001314,โรงพยาบาลพระมงกุฎ,,13.7674876514426,100.532778485177,
BS001313,แยกตึกชัย,,13.7687197496505,100.529983773808,
BS001312,ซอยสวนเงิน,,13.7709410432807,100.529545354658,
BS001311,การประปาสามเสน,,13.7735729939739,100.530687399524,
BS001310,ตรงข้ามสุโขทัย ซอย 1,,13.77400795019189,100.5265184530288,
BS001309,ตรงข้ามสุโขทัย ซอย 5,,13.77468067329434,100.5249787829268,
BS001308,ตรงข้าม ศาลาว่าการกรุงเทพมหานคร,,13.7545039634254,100.50125872892,
BS001307,วัดสุทัศน์,,13.7508043005525,100.500266880317,
BS001306,ตรงข้ามวังบูรพาภิรมย์,,13.74643764539919,100.4995744600716,
BS001441,วงเวียนใหญ่,,13.7253172794307,100.4926062227294,
BS001440,สถานีรถไฟวงเวียนใหญ่,,13.7243047624364,100.492178838673,
BS001439,แยกสาทร,,13.7212778602519,100.491186736038,
BS001438,ซอยเอกชัย 2,,13.69933173782632,100.4630495592502,
BS001437,ซอยเอกชัย 10,,13.69896287876822,100.4601456887378,
BS001436,ซอยเอกชัย 10/1,,13.69751648803751,100.4589720810027,
BS001435,ซอยเอกชัย 16,,13.6950369156421,100.4571126571548,
BS001434,ซอยเอกชัย 24,,13.69176350478425,100.4544807639272,
BS001433,ซอยเอกชัย 30,,13.69013169403069,100.4530623240572,
BS001432,เอกชัย 35/2,,13.68711974420871,100.4491048413807,
BS001431,โรงเรียนมัธยมวัดสิงห์,,13.6855511131103,100.4464909843566,
BS001430,เอกชัย 40,,13.68300044723941,100.441732295593,
BS001429,ซอยเอกชัย 46,,13.6815794098131,100.4391223095957,
BS001428,ตรงข้ามคาร์ฟู,,13.67992243837989,100.4362929756828,
BS001427,โรงเรียนวิชัยวิทยา,,13.67872773073009,100.4340340601922,
BS001426,โรงพยาบาลบางบอน,,13.67644033602694,100.4300565769352,
BS001425,ตลาดสดเอกชัย,,13.67430045005657,100.4262498588234,
BS001424,ซอยเอกชัย 85,,13.67379622677163,100.4252750259999,
BS001423,ตรงข้ามหมู่บ้านสุนทร 7,,13.67063002919405,100.4191240659333,
BS001422,ซอยเอกชัย 76,,13.66922247223198,100.4163731050384,
BS001421,ซอยเอกชัย 80,,13.66702545872103,100.4125939583612,
BS001420,ตรงข้ามสำนักงานเขตบางบอน,,13.66513535795573,100.4091546636898,
BS001419,โรงพยาบาลบางกอก 8 อินเตอร์เนชั่นแนล,,13.66309921784287,100.4058716922286,
BS001418,ซอยเอกชัย 94,,13.66144214474017,100.4026226433497,
BS001417,ซอยเอกชัย 100,,13.66027571257471,100.4006734604513,
BS001416,ซอยหมู่บ้านแก้วกาญจน์,,13.65916297698916,100.3987651857631,
BS001415,ซอยเอกชัย 106,,13.65769794428929,100.3962040086377,
BS001414,ซอยเอกชัย 110,,13.65424205163838,100.3915116486746,
BS001413,ซอยเอกชัย 104,,13.6521894986344,100.3889714426465,
BS001412,ซอยเอกชัย 107,,13.65114987098383,100.3875662631687,
BS001411,กรุงธนบุรีตำรวจภูธรตำบลสำโรงเหนือเรือนจำ (ผู้หญิง),,13.64841200942101,100.384126550326,
BS001410,ซอยเอกชัย 116,,13.64658986651791,100.3818206188621,
BS001409,วัดบางบอน,,13.64403500362921,100.3784808893965,
BS001408,ตรงข้ามหมู่บ้านชนิกา,,13.64169613020735,100.3756333012436,
BS001407,ซอยหมู่บ้านลลิลวิลล์,,13.63967893508667,100.3729804300958,
BS001406,ตรงข้ามซอยเอกชัย 33 แยก 1,,13.63779201110765,100.3708543193768,
BS001405,หมู่บ้านเพชรเอกชัย,,13.63617679619235,100.3688424826109,
BS001404,โรงเรียนศึกษานารี 2,,13.63402586076858,100.3662981792597,
BS001403,สวนจงสถิตย์ปาร์ค,,13.62337972629637,100.3538074135727,
BS001402,วัดโพธิ์แจ้,,13.62123710761065,100.3512804691893,
BS001401,ตรงข้ามวิเศษสุขนคร,,13.61110209585819,100.3435930724035,
BS001400,หน้าปั๊มน้ำมัน,,13.60284860260324,100.3378072013336,
BS001399,แยกเลียบคลองสี่วาพาสวัสดิ์,,13.59501531545922,100.3313263368581,
BS001398,โรงเรียนวัดราษฎร์รังสรรค์,,13.59279983703059,100.3290745146116,
BS001397,วัดโสภณาราม,,13.57304566017534,100.305269183847,
BS001396,นาดี,,13.56785150491279,100.2998947880211,
BS001395,มหาชัยคอนโด,,13.55843645122853,100.2896837535219,
BS001394,โรงพยาบาลมหาชัย,,13.55093041003632,100.2792314788924,
BS001393,สมาคมวัฒนธรรมจีน 12,,13.55041565562657,100.2762720162742,
BS001392,โรงเรียนอนุบาลสมุทรสาคร,,13.5501366204645,100.2763809341824,
BS001391,โรงพยาบาลมหาชัย,,13.55066490248604,100.2793394430941,
BS001390,มหาชัยคอนโด,,13.55800417462475,100.289929335133,
BS001389,นาดี,,13.56763633801416,100.3002234310484,
BS001388,วัดโสภณาราม,,13.57272945350924,100.3056058432115,
BS001387,โรงเรียนวัดราษฎร์รังสรรค์,,13.5926264558111,100.3293301042029,
BS001386,แยกราษฎร์พัฒนา,,13.59484247577121,100.3314658807484,
BS001385,คอกกระบือ,,13.60048532128659,100.3364105569291,
BS001384,วิเศษสุขนคร,,13.61154554964698,100.344130433977,
BS001383,แน็ค ส. เจริญกิจ,,13.6154602841461,100.3470569494807,
BS001382,วัดโพธิ์แจ้,,13.62099750501787,100.3515044900612,
BS001381,สวนจงสถิตย์ปาร์ค,,13.62327757850528,100.3541524799407,
BS001380,โรงเรียนศึกษานารี 2,,13.63381077407511,100.3666415065349,
BS001379,ตรีสมพลาสติกอินดัสเชียล,,13.63555236422893,100.3684909478324,
BS001378,หมู่บ้านเพชรเอกชัย,,13.63593495814008,100.3690730425418,
BS001377,ซอยเอกชัย 33 แยก 1,,13.63742706541505,100.3707567439963,
BS001376,หมู่บ้านลลิลวิลล์,,13.63942815081747,100.3731744602152,
BS001375,หมู่บ้านชนิกา,,13.64145612955303,100.3756917000349,
BS001374,วัดบางบอน,,13.64386686629184,100.3786913645408,
BS001373,ซอยเอกชัย 117,,13.64604558891039,100.3814565333726,
BS001372,กรุงธนบุรีตำรวจภูธรตำบลสำโรงเหนือเรือนจำ (ผู้หญิง),,13.64824827359159,100.3842981699637,
BS001371,ซอยเอกชัย 109,,13.65069071790998,100.3874469670735,
BS001370,ซอยเอกชัย 107,,13.65184855733022,100.3888860886754,
BS001369,ซอยเอกชัย 105,,13.6540539545127,100.3917377462677,
BS001368,ซอยเอกชัย 101,,13.65558189541915,100.3936796477835,
BS001367,ซอยเอกชัย 99/1,,13.65797572455985,100.397131714906,
BS001366,ซอยเอกชัย 95/1,,13.6609160829457,100.4022795628597,
BS001365,แยกถนนเอกชัย,,13.66261904300219,100.4051774960117,
BS001364,สำนักงานเขตบางบอน,,13.66484238773116,100.4091629221713,
BS001363,ซอยเอกชัย 89/8,,13.66678372399677,100.4126929440895,
BS001362,ซอยเอกชัย 89/2,,13.66903441128563,100.4166440797574,
BS001361,หมู่บ้านสุนทร 7,,13.67058818872626,100.4194564955484,
BS001360,ซอยเอกชัย 85,,13.67324422285467,100.424562468602,
BS001359,ซอยเอกชัย 85,,13.6736015165186,100.4253358090801,
BS001358,ซอยเอกชัย 83/6,,13.67422256718936,100.4264319712397,
BS001357,ตรงข้ามโรงพยาบาลบางบอน,,13.67608748936871,100.4299111522718,
BS001356,คาร์ฟู,,13.67884791557595,100.43474829863,
BS001355,คาร์ฟู,,13.67970224159648,100.4362760316528,
BS001354,คริสตจักรธนบุรี,,13.68118662605799,100.4388666354606,
BS001353,โรงเรียนมัธยมวัดสิงห์,,13.6851290668689,100.4458345836785,
BS001352,ซอยเอกชัย 37,,13.68653975997236,100.4484530543826,
BS001351,ซอยเอกชัย 25/1,,13.69136209671302,100.4543418287363,
BS001350,ซอยเอกชัย 11,,13.69466776276379,100.4570390897271,
BS001349,ตรงข้ามซอยเอกชัย 10/1,,13.69743195737807,100.4591017035192,
BS001348,ซอยเอกชัย 3,,13.69874080745994,100.4601438470279,
BS001347,แยกสาทร,,13.7212333602981,100.491437832551,
BS001442,ท่ารถห้วยขวาง,,13.77549283395212,100.5691085482934,
BS001563,แยกห้วยขวาง,,13.7780891613795,100.573453743766,
BS001562,โรงแรมดิเอมเมอรัล,,13.7752686315223,100.573295227929,
BS001561,โรงเรียนประชาราษฏร์,,13.7724320570599,100.573145731341,
BS001447,แยกศูนย์วัฒนธรรม,,13.76794,100.57418,
BS001448,สนามมวยกรุงเทพ,,13.7676944895241,100.575520153275,
BS001449,สยามนิรมิตร,,13.7671909215942,100.578770646688,
BS001450,ศูนย์ อีซูซุ,,13.7667614087933,100.58152368439,
BS001560,ไปรษณีย์ห้วยขวาง,,13.76817357007107,100.586419386178,
BS001559,แยกเหม่งจ๋าย,,13.76930694970914,100.5882026413377,
BS001558,ตีนสะพาน,,13.76919123284038,100.5906125631107,
BS001557,TOYOTA,,13.76847708515524,100.5947304674956,
BS001455,ร้านลีลาวดี,,13.76812647409665,100.5964862080344,
BS001556,ปั๊ม ESSO,,13.76792393091398,100.5973863628788,
BS001555,ปั๊ม ปตท.,,13.76727141789687,100.6009363638461,
BS001457,ซอยหมู่บ้านกลางเมือง,,13.77057937,100.6046747,
BS001458,เลียบทางด่วน 3,,13.7757246956735,100.606590634465,
BS001459,ทาว์อินทาว์,,13.7750791877082,100.607224823679,
BS001554,บริษัทหินอ่อน,,13.76514197731848,100.6049766783524,
BS001553,สภาวิศวกร,,13.7639788756759,100.606349401346,
BS001552,วิทยาลัยอินทราชัย,,13.76275395290122,100.6078930245248,
BS001551,หมูกระทะ,,13.76132017559768,100.6096244208446,
BS001550,ชุมชนรุ่งมณีพัฒนา,,13.76063212036984,100.6113020987868,
BS001549,ตรงข้ามวัดเทพลีลา,,13.75891881474234,100.6138445843181,
BS001548,ตลาดบางกะปิ,,13.7673809957543,100.643087318508,
BS001547,ห้างแม็คโครบางกะปิ,,13.7689417651431,100.64028872641,
BS001546,ซอยลาดพร้าว 11/1,,13.76987116502303,100.6385652123315,
BS001545,เวชทานี,,13.77077521411037,100.6370434256291,
BS001544,ลาดพร้าว 107,,13.7722831576998,100.634221410162,
BS001543,โรงเรียนเตรียมศึกษาบางกะปิ,,13.77361648234882,100.6319163527422,
BS001542,ตรงข้ามโรงเรียนสอนคอมพิวเตอร์แสควร์-ลาดพร้าว,,13.77477863638949,100.6298193351996,
BS001541,ร้านอาหารทิพวรรณ,,13.7761832400984,100.627285671788,
BS001540,โรงเรียนภาษาอังกฤษสันติ,,13.77738932772008,100.6252487736733,
BS001539,โรงพยาบาลลาดพร้าว,,13.7781341577286,100.623821256948,
BS001538,ฟู้ดแลนด์,,13.77883286787011,100.6225746376277,
BS001537,ซอยลาดพร้าว 93,,13.7799960665947,100.6204223939071,
BS001536,โรงเรียนบางกอกศึกษา,,13.7812165242444,100.618260291972,
BS001535,สำนักงานเขตวังทองหลาง,,13.7829501088129,100.6151986802987,
BS001534,ห้างอิมพิเรียลลาดพร้าว,,13.7845741668596,100.612253032219,
BS001533,ลาดพร้าว 79,,13.7856768874092,100.6103273924512,
BS001532,แกรนด์วิลเลจ,,13.7871844959399,100.607585305996,
BS001531,ลาดพร้าว ซอย 80,,13.7884316395693,100.605360910212,
BS001530,ปณ. ลาดพร้าว,,13.7898112138445,100.60289727535,
BS001529,ศึกษาภัณฑ์ลาดพร้าว,,13.7912600798437,100.600341281397,
BS001528,กรมแผนที่ทหาร,,13.792890066362,100.597397881737,
BS001527,โรงเรียนถนอมพิศ,,13.7940893555664,100.595280106999,
BS001526,โชคชัย 4,,13.795091444154,100.593434748092,
BS001525,สถานีตำรวจโชคชัย,,13.795619146718,100.592527511324,
BS001524,ลาดพร้าวสะพาน 2,,13.7965622464778,100.590792828331,
BS001523,โรงเรียนพิบูลย์อุปถัมภ์,,13.798116177763,100.588036032534,
BS001522,ลาดพร้าว 41/1,,13.79976594243095,100.5850535078258,
BS001521,ซอยภาวนา,,13.8006290140231,100.583533823742,
BS001520,ลาดพร้าว ซอย 35,,13.8023401201985,100.580461692067,
BS001519,ลาดพร้าว ซอย 40,,13.8030327812598,100.579258206853,
BS001518,ลาดพร้าว ซอย 38,,13.8038484244154,100.577726208005,
BS001517,แยกรัชดา,,13.8045051612179,100.576572400348,
BS001516,แยกลาดพร้าว-รัชดา,,13.8051951422944,100.575389615046,
BS001515,ลาดพร้าว ซอย 26,,13.8063524559888,100.573312901356,
BS001514,ซอยลาดพร้าว 17,,13.80704371335594,100.5720562727533,
BS001513,ลาดพร้าว ซอย 20,,13.8077854233511,100.570738308903,
BS001512,ห้างคาร์ฟูร์ลาดพร้าว,,13.8094822386699,100.567688802029,
BS001511,ธนาคารไทยพาณิชย์ลาดพร้าว,,13.8102315403508,100.566374585212,
BS001510,ตรงข้ามสงวนซาวต์ ออโต้แคร์,,13.81087482955074,100.5651854160014,
BS001509,แยกลาดพร้าว,,13.8122294179442,100.562831926653,
BS001508,อ.ต.ก.,,13.797752763418,100.547031476921,
BS001507,ย่านพหลโยธิน,,13.7978244184322,100.542052505924,
BS001506,ย่านพหลโยธิน,,13.7976311441378,100.541957332415,
BS001505,อ.ต.ก.,,13.7975322362897,100.547305342636,
BS001504,ปากทางลาดพร้าว,,13.813062,100.560901,
BS001503,แยกลาดพร้าว,,13.812038784785,100.562755691406,
BS001502,โรงแรมลาดพร้าว,,13.81107369717704,100.5645461453143,
BS001501,ธนาคารไทยพาณิชย์ลาดพร้าว,,13.8101048795554,100.566195795084,
BS001500,ห้างคาร์ฟูร์ลาดพร้าว,,13.8093346322847,100.567542010864,
BS001499,ลาดพร้าว ซอย 20,,13.807606,100.570602,
BS001498,ซอยลาดพร้าว 22,,13.80702428030575,100.571738480205,
BS001497,แยกลาดพร้าว-รัชดา,,13.8050397195468,100.575324432283,
BS001496,แยกรัชดา,,13.804369,100.576499,
BS001495,ลาดพร้าว ซอย 38,,13.8037120096845,100.577630601262,
BS001494,ลาดพร้าว ซอย 40,,13.8028911727689,100.579075512122,
BS001493,ลาดพร้าว ซอย 42,,13.8021600289013,100.580391320572,
BS001492,ซอยภาวนา,,13.800478856627,100.583379181452,
BS001491,ตรงข้ามซอยลาดพร้าว 43,,13.79932891665627,100.5854944639012,
BS001490,โรงเรียนพิบูลย์อุปถัมภ์,,13.7979339822134,100.587947145944,
BS001489,ลาดพร้าวสะพาน 2,,13.7963905343675,100.590681407187,
BS001488,สถานีตำรวจโชคชัย,,13.7954545989498,100.592373727474,
BS001487,โชคชัย 4,,13.794943049612,100.593348984968,
BS001486,โรงเรียนถนอมพิศ,,13.7938935026117,100.595179263883,
BS001485,กรมแผนที่ทหาร,,13.7927623371066,100.59727026987,
BS001484,ลาดพร้าว ซอย 64,,13.7911430945965,100.600101766312,
BS001483,ปณ. ลาดพร้าว,,13.7896293012502,100.60280783327,
BS001482,ลาดพร้าว ซอย 80,,13.7882530830567,100.605253683699,
BS001481,แกรนด์วิลเลจ,,13.7870131833494,100.607484492847,
BS001480,ลาดพร้าว 92,,13.7853292721874,100.6104637646199,
BS001479,ห้างอิมพิเรียลลาดพร้าว,,13.7844112797632,100.612169156702,
BS001478,ตรงข้ามสำนักงานเขตวังทองหลาง,,13.78268487872,100.6152687533521,
BS001477,โรงเรียนบางกอกศึกษา,,13.78106,100.6182,
BS001476,ซอยลาดพร้าว 114,,13.78002699693741,100.6200119420173,
BS001475,ตรงข้ามฟู้ดแลนด์,,13.77861546744247,100.6225614847331,
BS001474,โรงพยาบาลลาดพร้าว,,13.77797,100.62374,
BS001473,ซอยลาดพร้าว 122,,13.7773015618235,100.6249130974004,
BS001472,ร้านอาหารทิพวรรณ,,13.7760479405275,100.627182082871,
BS001471,โรงเรียนสอนคอมพิวเตอร์แสควร์-ลาดพร้าว,,13.77464703671553,100.6297206427276,
BS001470,ลาดพร้าว 130/1,,13.7732114166117,100.6323028594322,
BS001469,ตรงข้ามลาดพร้าว 107,,13.77178968614,100.63473255606,
BS001468,ลาดพร้าว 136,,13.77053198414048,100.6368439386941,
BS001467,ตะวันนา2,,13.76961410995071,100.6386177678926,
BS001466,ห้างแม็คโครบางกะปิ,,13.7686439878568,100.640147188222,
BS001465,ห้างเดอะมอลล์บางกะปิ,,13.76761944,100.6420778,
BS001464,ตรงข้ามเทพลีลา ซอย 2,,13.76046028001318,100.6118853550142,
BS001463,ตรงข้ามเทพลีลา ซอย 8,,13.76218101692503,100.6087379003672,
BS001462,ชุมชนทรัพย์สินใหม่,,13.76426018263352,100.6062342642443,
BS001461,บริษัทหินอ่อน,,13.76532608719498,100.6049483673126,
BS001460,เดอวิลเลจอินทาวส์,,13.77181282642289,100.6069367044937,
BS001456,เลียบทางด่วน 1,,13.7680349271961,100.602512032877,
BS001454,สถานทูตลาว,,13.76900603047748,100.593336080259,
BS001453,ซอยสุวรรณมณี,,13.7693036963629,100.5904518519883,
BS001452,แยกเหม่งจ๋าย,,13.76940401812267,100.5879843830291,
BS001451,ไปรษณีย์ห้วยขวาง,,13.7683975941421,100.5862607275675,
BS001446,โรงเรียนประชาราษฏร์,,13.7727061674842,100.573507832063,
BS001445,โรงแรมดิเอมเมอรัล,,13.7752767866743,100.57360916204,
BS001444,โรงแรมเลอคองคอร์ด,,13.7765009544002,100.573671811121,
BS001443,แยกห้วยขวาง,,13.7778188477128,100.573709790083,
BS001730,ศิลปกร,,13.7522862597875,100.4900462509838,
BS001729,สนามหลวง,,13.7523458213738,100.492028437946,
BS001728,สนามหลวง,,13.755580981358,100.494360424568,
BS001727,เชิงสะพานสมเด็จพระปิ่นเกล้า,,13.7595110110227,100.493141055923,
BS001726,วิทยาลัยนาฎศิลป์,,13.7607556254241,100.492022440223,
BS001725,สะพานพระปิ่นเกล้า ฝั่งธนบุรี,,13.76559719791884,100.4883612496113,
BS001724,แยกอรุณอัมรินทร์,,13.7679591980023,100.486762514293,
BS001723,ห้างพาต้าปิ่นเกล้า,,13.771163267898,100.4839589022,
BS001722,ถนนสมเด็จพระปิ่นเกล้า,,13.7725790878429,100.482890944174,
BS001721,เมเจอร์ปิ่นเกล้า,,13.7755219016016,100.480051306884,
BS001720,ถนนบรมราชชนนี,,13.7770378460375,100.478645923879,
BS001719,ห้างเซ็นทรัลปิ่นเกล้า,,13.7787360153402,100.476997556658,
BS001718,ซอยบรมราชชนนี 4,,13.78170755,100.47414583,
BS001717,รพ. เจ้าพระยา,,13.7840966028692,100.472058256836,
BS001716,สวนอาหารจวนทอง,,13.7861304910225,100.470143937422,
BS001715,วัดไก่เตี้ย,,13.7862079509828,100.46294033556,
BS001714,ศูนย์มนุษย์วิทยา,,13.7846925531974,100.458139826241,
BS001713,เสรีกอล์ฟ,,13.7842393114055,100.456503563831,
BS001712,ศูนย์มนุษย์วิทยา,,13.7833963050016,100.453855337247,
BS001711,สถานีตำรวจตลิ่งชัน,,13.7811504,100.4460166,
BS001710,วัดชัยพฤกษ์,,13.780224159445,100.442545853197,
BS001709,วัดกิ่งแก้ว,,13.780357607631,100.439164406201,
BS001708,ซอยบรมราชชนนี 52,,13.7805347,100.4355778,
BS001707,ถนนฉีมพลี,,13.7810222,100.4312034,
BS001706,วัดมะกอก,,13.7814161988788,100.427592621412,
BS001705,สายใต้ใหม่,,13.7816153140719,100.425403692446,
BS001704,ตรงข้ามสถานีขนส่งสายใต้,,13.78184039,100.42303033,
BS001703,แยกทุ่งมังกร,,13.7822003837692,100.420268870079,
BS001702,สำนักงานไปรษณีย์ตลิ่งชัน,,13.7825502255718,100.416584866688,
BS001701,บ้านภาณุ,,13.7830110849927,100.412075021911,
BS001700,หมู่บ้านเขมรัฐ,,13.7837715745819,100.404919787939,
BS001699,โรงพยาบาลธนบุรี 2,,13.7841616256602,100.401410769089,
BS001698,วิทยาลัยทองสุข,,13.78450338040718,100.3986656886435,
BS001697,พุทธมณฑลสาย 2-บรมราชชนนี,,13.7847283896409,100.396068556151,
BS001696,หมู่บ้านเพชรพลอย,,13.776357825477,100.394631475341,
BS001695,หมู่บ้านกอบแก้ว,,13.7719677205138,100.394826604453,
BS001694,หมู่บ้านมหามงคล,,13.742486105811,100.395321357472,
BS001693,หมู่บ้านธีราคร,,13.7349731863792,100.395461491384,
BS001692,พุทธมณฑลสาย 2,,13.709757196907,100.395424313873,
BS001691,สถานีไฟฟ้าย่อยบางกอกน้อย,,13.7093135274632,100.390320646408,
BS001690,เพชรเกษม ซอย 94,,13.7091311156233,100.387582284018,
BS001689,สน. หลักสอง,,13.7089042320404,100.385290387178,
BS001688,สถานีตำรวจหลักสอง,,13.708667395268,100.38275934837,
BS001687,โรงเรียนเทคโนโลยีกรุงธน,,13.7084663346482,100.38022526485,
BS001686,ปากทางหมู่บ้านเศรษฐกิจ,,13.7083333263405,100.377870552218,
BS001685,แรลลี่คาร์,,13.7081317968656,100.3743757625674,
BS001684,สวนสาธารณะทวีวนารมย์,,13.70797446,100.37278995,
BS001683,บริษัทนันยาง,,13.7078546421655,100.369056268817,
BS001682,ห้างคาร์ฟูร์เพชรเกษม,,13.7076788936587,100.366973131621,
BS001681,ตลาดเพชรเกษม,,13.7073937920585,100.36342708621,
BS001680,ช่อง 3,,13.7071519740399,100.360664917861,
BS001679,มหาวิทยาลัยเอเชียอาคเนย์,,13.7068188968819,100.356459052504,
BS001678,หมู่บ้านศรีเพชร,,13.7066196830656,100.353952951493,
BS001677,เพชรเกษม 106,,13.70633216159259,100.3512756014203,
BS001676,ตลาดหนองแขม,,13.7061730569279,100.3484771821,
BS001675,เพชรเกษม 112,,13.7056164,100.34395206,
BS001674,หมู่บ้านนครธน,,13.705620240901,100.341800649093,
BS001673,ซอยสิทธิพงษ์,,13.7053920282712,100.339257701167,
BS001672,หมู่บ้านหรรษา,,13.7050862466389,100.334944273671,
BS001671,พุทธมณฑลสาย4,,13.7048985083454,100.331931530189,
BS001670,วัดใหม่,,13.7046202768188,100.329040405067,
BS001669,ตลาดสมบูรณ์อ้อมน้อย,,13.7043829369883,100.324411943073,
BS001668,เวทีมวยสยาม,,13.7045955006585,100.319802874384,
BS001667,ตรงข้ามธนาคารไทยพาณิชย์ สาขาอ้อมน้อย,,13.70498157,100.31550581,
BS001666,ตรงข้ามสถานีตำรวจดับเพลิงอ้อมน้อย,,13.70517261,100.31320871,
BS001665,โรงแรมกาแล็คซี่อินน์อ้อมน้อย,,13.705528466797,100.310368196973,
BS001664,โรงแรมสตาร์อินน์,,13.7061063007394,100.304473030135,
BS001663,ปณ.อ้อมน้อย,,13.7066817702302,100.29885930339,
BS001662,โรงเรียนโสภณชนูปถัมภ์,,13.7071547984906,100.294052173425,
BS001661,โรงพยาบาลศรีวิชัย 3,,13.7075886958056,100.289601974455,
BS001660,ซอยอัครพัฒน์,,13.7081290778085,100.283971531015,
BS001659,หมู่บ้านสามพราน,,13.7086853912854,100.278451114884,
BS001658,โรงงานอาหารไทยอ้อมใหญ่,,13.7092572674152,100.272777203666,
BS001657,หมู่บ้านนิศาชลอ้อมใหญ่,,13.7096906000225,100.268595057514,
BS001656,วัดอ้อมใหญ่,,13.7116504236994,100.264719562595,
BS001655,ท่ารถสาย 84 อ้อมใหญ่,,13.7145455358921,100.262303173997,
BS001654,โรงเรียนยอเซฟอุปถัมภ์,,13.71843341512387,100.2589983663792,
BS001653,หมู่บ้านตวงธนานคร,,13.72585682547019,100.2528069676406,
BS001652,ตรงข้ามซอยเอราวัล,,13.72853100543471,100.2505641445841,
BS001651,ฮอนด้าสามพราน,,13.73051733227828,100.248895095883,
BS001650,ข้างร้าน เค พี แก๊ส,,13.73562299157487,100.2445895016372,
BS001649,โตโยต้าท่าจีน,,13.73955014206445,100.2413844381417,
